	category	context	id	location	location_subtype	location_type	month	outcome_status	persistent_id
0	anti-social-behaviour		66575183	{'latitude': '52.635184', 'street': {'id': 883410, 'name': 'On or near Shopping Area'}, 'longitude': '-1.135455'}		Force	2018-07		
1	anti-social-behaviour		66581655	{'latitude': '52.637024', 'street': {'id': 883408, 'name': 'On or near Supermarket'}, 'longitude': '-1.128962'}		Force	2018-07		
2	anti-social-behaviour		66575849	{'latitude': '52.626412', 'street': {'id': 882457, 'name': 'On or near Glossop Street'}, 'longitude': '-1.109095'}		Force	2018-07		
3	anti-social-behaviour		66575853	{'latitude': '52.632887', 'street': {'id': 883388, 'name': 'On or near Belvoir Street'}, 'longitude': '-1.131127'}		Force	2018-07		
4	anti-social-behaviour		66581653	{'latitude': '52.628321', 'street': {'id': 883044, 'name': 'On or near Upper Tichborne Street'}, 'longitude': '-1.116606'}		Force	2018-07		
5	anti-social-behaviour		66575863	{'latitude': '52.636033', 'street': {'id': 883368, 'name': 'On or near Freeschool Lane'}, 'longitude': '-1.138424'}		Force	2018-07		
6	anti-social-behaviour		66575864	{'latitude': '52.629778', 'street': {'id': 883285, 'name': 'On or near Brookhouse Avenue'}, 'longitude': '-1.121585'}		Force	2018-07		
7	anti-social-behaviour		66581421	{'latitude': '52.631564', 'street': {'id': 883395, 'name': 'On or near Theatre/concert Hall'}, 'longitude': '-1.129661'}		Force	2018-07		
8	anti-social-behaviour		66574622	{'latitude': '52.623521', 'street': {'id': 882292, 'name': 'On or near Eastleigh Road'}, 'longitude': '-1.151167'}		Force	2018-07		
9	anti-social-behaviour		66573641	{'latitude': '52.635434', 'street': {'id': 883399, 'name': 'On or near Conference/exhibition Centre'}, 'longitude': '-1.126658'}		Force	2018-07		
10	anti-social-behaviour		66582052	{'latitude': '52.633414', 'street': {'id': 876793, 'name': 'On or near Bishop Street'}, 'longitude': '-1.131841'}		Force	2018-07		
11	anti-social-behaviour		66582049	{'latitude': '52.642641', 'street': {'id': 884320, 'name': 'On or near Taylor Road'}, 'longitude': '-1.122628'}		Force	2018-07		
12	anti-social-behaviour		66577163	{'latitude': '52.636721', 'street': {'id': 883359, 'name': 'On or near Haymarket'}, 'longitude': '-1.132898'}		Force	2018-07		
13	anti-social-behaviour		66582048	{'latitude': '52.637744', 'street': {'id': 883499, 'name': 'On or near Jarvis Street'}, 'longitude': '-1.142616'}		Force	2018-07		
14	anti-social-behaviour		66577172	{'latitude': '52.636721', 'street': {'id': 883359, 'name': 'On or near Haymarket'}, 'longitude': '-1.132898'}		Force	2018-07		
15	anti-social-behaviour		66577177	{'latitude': '52.627542', 'street': {'id': 883245, 'name': 'On or near West Street'}, 'longitude': '-1.129268'}		Force	2018-07		
16	anti-social-behaviour		66577178	{'latitude': '52.637674', 'street': {'id': 883469, 'name': 'On or near Tudor Road'}, 'longitude': '-1.147819'}		Force	2018-07		
17	anti-social-behaviour		66577180	{'latitude': '52.628613', 'street': {'id': 883221, 'name': 'On or near Highfield Street'}, 'longitude': '-1.118388'}		Force	2018-07		
18	anti-social-behaviour		66576212	{'latitude': '52.635598', 'street': {'id': 883314, 'name': 'On or near Yeoman Lane'}, 'longitude': '-1.129330'}		Force	2018-07		
19	anti-social-behaviour		66576219	{'latitude': '52.632074', 'street': {'id': 883294, 'name': 'On or near Pedestrian Subway'}, 'longitude': '-1.137984'}		Force	2018-07		
20	anti-social-behaviour		66576222	{'latitude': '52.629292', 'street': {'id': 883212, 'name': 'On or near Severn Street'}, 'longitude': '-1.117842'}		Force	2018-07		
21	anti-social-behaviour		66576523	{'latitude': '52.627957', 'street': {'id': 883057, 'name': 'On or near Conifer Close'}, 'longitude': '-1.110068'}		Force	2018-07		
22	anti-social-behaviour		66577187	{'latitude': '52.635767', 'street': {'id': 883291, 'name': 'On or near High Street'}, 'longitude': '-1.135267'}		Force	2018-07		
23	anti-social-behaviour		66575488	{'latitude': '52.636362', 'street': {'id': 883137, 'name': 'On or near Hartington Road'}, 'longitude': '-1.111168'}		Force	2018-07		
24	anti-social-behaviour		66582044	{'latitude': '52.632352', 'street': {'id': 883486, 'name': 'On or near Narborough Road North'}, 'longitude': '-1.146549'}		Force	2018-07		
25	anti-social-behaviour		66582036	{'latitude': '52.625201', 'street': {'id': 882420, 'name': 'On or near St James Road'}, 'longitude': '-1.114231'}		Force	2018-07		
26	anti-social-behaviour		66582035	{'latitude': '52.628993', 'street': {'id': 883084, 'name': 'On or near Sutherland Street'}, 'longitude': '-1.112795'}		Force	2018-07		
27	anti-social-behaviour		66582031	{'latitude': '52.633879', 'street': {'id': 883358, 'name': 'On or near Horsefair Street'}, 'longitude': '-1.132821'}		Force	2018-07		
28	anti-social-behaviour		66573954	{'latitude': '52.634824', 'street': {'id': 883427, 'name': 'On or near Janet Setchfield Place'}, 'longitude': '-1.139112'}		Force	2018-07		
29	anti-social-behaviour		66574595	{'latitude': '52.624935', 'street': {'id': 882443, 'name': 'On or near Lyme Road'}, 'longitude': '-1.109849'}		Force	2018-07		
30	anti-social-behaviour		66576836	{'latitude': '52.636256', 'street': {'id': 883316, 'name': 'On or near Wimbledon Street'}, 'longitude': '-1.125933'}		Force	2018-07		
31	anti-social-behaviour		66576842	{'latitude': '52.633161', 'street': {'id': 883433, 'name': 'On or near Castle Street'}, 'longitude': '-1.140416'}		Force	2018-07		
32	anti-social-behaviour		66576847	{'latitude': '52.641197', 'street': {'id': 884356, 'name': 'On or near A594'}, 'longitude': '-1.129100'}		Force	2018-07		
33	anti-social-behaviour		66576849	{'latitude': '52.631380', 'street': {'id': 883322, 'name': 'On or near Upper Brown Street'}, 'longitude': '-1.135338'}		Force	2018-07		
34	anti-social-behaviour		66576851	{'latitude': '52.635006', 'street': {'id': 883394, 'name': 'On or near Nightclub'}, 'longitude': '-1.127066'}		Force	2018-07		
35	anti-social-behaviour		66576853	{'latitude': '52.628588', 'street': {'id': 883223, 'name': 'On or near Gotham Street'}, 'longitude': '-1.119910'}		Force	2018-07		
36	anti-social-behaviour		66576869	{'latitude': '52.635121', 'street': {'id': 883430, 'name': 'On or near High Street'}, 'longitude': '-1.139077'}		Force	2018-07		
37	anti-social-behaviour		66576877	{'latitude': '52.636721', 'street': {'id': 883359, 'name': 'On or near Haymarket'}, 'longitude': '-1.132898'}		Force	2018-07		
38	anti-social-behaviour		66581514	{'latitude': '52.627557', 'street': {'id': 883053, 'name': 'On or near Guilford Street'}, 'longitude': '-1.114228'}		Force	2018-07		
39	anti-social-behaviour		66574902	{'latitude': '52.636721', 'street': {'id': 883359, 'name': 'On or near Haymarket'}, 'longitude': '-1.132898'}		Force	2018-07		
40	anti-social-behaviour		66581512	{'latitude': '52.634824', 'street': {'id': 883427, 'name': 'On or near Janet Setchfield Place'}, 'longitude': '-1.139112'}		Force	2018-07		
41	anti-social-behaviour		66577480	{'latitude': '52.636721', 'street': {'id': 883359, 'name': 'On or near Haymarket'}, 'longitude': '-1.132898'}		Force	2018-07		
42	anti-social-behaviour		66581494	{'latitude': '52.634136', 'street': {'id': 883357, 'name': 'On or near Hotel Street'}, 'longitude': '-1.134752'}		Force	2018-07		
43	anti-social-behaviour		66577449	{'latitude': '52.634709', 'street': {'id': 883422, 'name': 'On or near Talbot Lane'}, 'longitude': '-1.141893'}		Force	2018-07		
44	anti-social-behaviour		66577456	{'latitude': '52.631679', 'street': {'id': 883519, 'name': 'On or near Catesby Street'}, 'longitude': '-1.150448'}		Force	2018-07		
45	anti-social-behaviour		66577476	{'latitude': '52.642641', 'street': {'id': 884320, 'name': 'On or near Taylor Road'}, 'longitude': '-1.122628'}		Force	2018-07		
46	anti-social-behaviour		66577485	{'latitude': '52.632993', 'street': {'id': 883396, 'name': 'On or near Nightclub'}, 'longitude': '-1.129633'}		Force	2018-07		
47	anti-social-behaviour		66577487	{'latitude': '52.638432', 'street': {'id': 883293, 'name': 'On or near Lee Circle'}, 'longitude': '-1.129717'}		Force	2018-07		
48	anti-social-behaviour		66577488	{'latitude': '52.631564', 'street': {'id': 883395, 'name': 'On or near Theatre/concert Hall'}, 'longitude': '-1.129661'}		Force	2018-07		
49	anti-social-behaviour		66577493	{'latitude': '52.638745', 'street': {'id': 883166, 'name': 'On or near Charnwood Street'}, 'longitude': '-1.113691'}		Force	2018-07		
50	anti-social-behaviour		66581466	{'latitude': '52.639626', 'street': {'id': 883389, 'name': 'On or near Belgrave Gate'}, 'longitude': '-1.130639'}		Force	2018-07		
51	anti-social-behaviour		66573993	{'latitude': '52.625201', 'street': {'id': 882420, 'name': 'On or near St James Road'}, 'longitude': '-1.114231'}		Force	2018-07		
52	anti-social-behaviour		66577752	{'latitude': '52.626412', 'street': {'id': 882457, 'name': 'On or near Glossop Street'}, 'longitude': '-1.109095'}		Force	2018-07		
53	anti-social-behaviour		66577764	{'latitude': '52.635414', 'street': {'id': 883313, 'name': 'On or near Yeoman Street'}, 'longitude': '-1.128742'}		Force	2018-07		
54	anti-social-behaviour		66574288	{'latitude': '52.638745', 'street': {'id': 883166, 'name': 'On or near Charnwood Street'}, 'longitude': '-1.113691'}		Force	2018-07		
55	anti-social-behaviour		66577785	{'latitude': '52.631718', 'street': {'id': 883352, 'name': 'On or near London Road'}, 'longitude': '-1.126171'}		Force	2018-07		
56	anti-social-behaviour		66577494	{'latitude': '52.635488', 'street': {'id': 883480, 'name': 'On or near Rivers Street'}, 'longitude': '-1.147640'}		Force	2018-07		
57	anti-social-behaviour		66577503	{'latitude': '52.639335', 'street': {'id': 883362, 'name': 'On or near Gravel Street'}, 'longitude': '-1.133940'}		Force	2018-07		
58	anti-social-behaviour		66577508	{'latitude': '52.636033', 'street': {'id': 883368, 'name': 'On or near Freeschool Lane'}, 'longitude': '-1.138424'}		Force	2018-07		
59	anti-social-behaviour		66577808	{'latitude': '52.637465', 'street': {'id': 883431, 'name': 'On or near Great Central Street'}, 'longitude': '-1.141233'}		Force	2018-07		
60	anti-social-behaviour		66577811	{'latitude': '52.633414', 'street': {'id': 876793, 'name': 'On or near Bishop Street'}, 'longitude': '-1.131841'}		Force	2018-07		
61	anti-social-behaviour		66577816	{'latitude': '52.629293', 'street': {'id': 1319949, 'name': 'On or near Bede Park'}, 'longitude': '-1.144983'}		Force	2018-07		
62	anti-social-behaviour		66581427	{'latitude': '52.632073', 'street': {'id': 883364, 'name': 'On or near Granby Street'}, 'longitude': '-1.126829'}		Force	2018-07		
63	anti-social-behaviour		66573638	{'latitude': '52.621591', 'street': {'id': 882481, 'name': 'On or near Cedars Court'}, 'longitude': '-1.113536'}		Force	2018-07		
64	anti-social-behaviour		66581267	{'latitude': '52.631940', 'street': {'id': 883105, 'name': 'On or near Park Vale Road'}, 'longitude': '-1.108864'}		Force	2018-07		
65	anti-social-behaviour		66580998	{'latitude': '52.631689', 'street': {'id': 883222, 'name': 'On or near Guthlaxton Street'}, 'longitude': '-1.117484'}		Force	2018-07		
66	anti-social-behaviour		66574002	{'latitude': '52.637069', 'street': {'id': 883413, 'name': 'On or near Supermarket'}, 'longitude': '-1.131414'}		Force	2018-07		
67	anti-social-behaviour		66574005	{'latitude': '52.633414', 'street': {'id': 876793, 'name': 'On or near Bishop Street'}, 'longitude': '-1.131841'}		Force	2018-07		
68	anti-social-behaviour		66580996	{'latitude': '52.631051', 'street': {'id': 883209, 'name': 'On or near Stoughton Street South'}, 'longitude': '-1.117452'}		Force	2018-07		
69	anti-social-behaviour		66574281	{'latitude': '52.632246', 'street': {'id': 883311, 'name': 'On or near York Street'}, 'longitude': '-1.129529'}		Force	2018-07		
70	anti-social-behaviour		66580993	{'latitude': '52.623521', 'street': {'id': 882292, 'name': 'On or near Eastleigh Road'}, 'longitude': '-1.151167'}		Force	2018-07		
71	anti-social-behaviour		66580992	{'latitude': '52.630420', 'street': {'id': 883390, 'name': 'On or near Ashwell Street'}, 'longitude': '-1.126995'}		Force	2018-07		
72	anti-social-behaviour		66580991	{'latitude': '52.636256', 'street': {'id': 883316, 'name': 'On or near Wimbledon Street'}, 'longitude': '-1.125933'}		Force	2018-07		
73	anti-social-behaviour		66580990	{'latitude': '52.635414', 'street': {'id': 883313, 'name': 'On or near Yeoman Street'}, 'longitude': '-1.128742'}		Force	2018-07		
74	anti-social-behaviour		66580987	{'latitude': '52.636721', 'street': {'id': 883359, 'name': 'On or near Haymarket'}, 'longitude': '-1.132898'}		Force	2018-07		
75	anti-social-behaviour		66574280	{'latitude': '52.626875', 'street': {'id': 882383, 'name': 'On or near Further/higher Educational Building'}, 'longitude': '-1.120476'}		Force	2018-07		
76	anti-social-behaviour		66573631	{'latitude': '52.634407', 'street': {'id': 883407, 'name': 'On or near Shopping Area'}, 'longitude': '-1.133653'}		Force	2018-07		
77	anti-social-behaviour		66581973	{'latitude': '52.637069', 'street': {'id': 883413, 'name': 'On or near Supermarket'}, 'longitude': '-1.131414'}		Force	2018-07		
78	anti-social-behaviour		66573628	{'latitude': '52.635598', 'street': {'id': 883314, 'name': 'On or near Yeoman Lane'}, 'longitude': '-1.129330'}		Force	2018-07		
79	anti-social-behaviour		66578302	{'latitude': '52.632073', 'street': {'id': 883364, 'name': 'On or near Granby Street'}, 'longitude': '-1.126829'}		Force	2018-07		
80	anti-social-behaviour		66578308	{'latitude': '52.636362', 'street': {'id': 883137, 'name': 'On or near Hartington Road'}, 'longitude': '-1.111168'}		Force	2018-07		
81	anti-social-behaviour		66578316	{'latitude': '52.633414', 'street': {'id': 876793, 'name': 'On or near Bishop Street'}, 'longitude': '-1.131841'}		Force	2018-07		
82	anti-social-behaviour		66578334	{'latitude': '52.631718', 'street': {'id': 883352, 'name': 'On or near London Road'}, 'longitude': '-1.126171'}		Force	2018-07		
83	anti-social-behaviour		66578340	{'latitude': '52.634324', 'street': {'id': 883326, 'name': 'On or near St Martins'}, 'longitude': '-1.135916'}		Force	2018-07		
84	anti-social-behaviour		66578578	{'latitude': '52.635767', 'street': {'id': 883291, 'name': 'On or near High Street'}, 'longitude': '-1.135267'}		Force	2018-07		
85	anti-social-behaviour		66578581	{'latitude': '52.627491', 'street': {'id': 883201, 'name': 'On or near Mill Hill Lane'}, 'longitude': '-1.118661'}		Force	2018-07		
86	anti-social-behaviour		66573961	{'latitude': '52.627414', 'street': {'id': 883418, 'name': 'On or near Jarrom Street'}, 'longitude': '-1.138800'}		Force	2018-07		
87	anti-social-behaviour		66573960	{'latitude': '52.638691', 'street': {'id': 883400, 'name': 'On or near Nightclub'}, 'longitude': '-1.131914'}		Force	2018-07		
88	anti-social-behaviour		66581213	{'latitude': '52.624424', 'street': {'id': 882275, 'name': 'On or near Stuart Street'}, 'longitude': '-1.150485'}		Force	2018-07		
89	anti-social-behaviour		66581206	{'latitude': '52.629348', 'street': {'id': 883343, 'name': 'On or near Museum Square'}, 'longitude': '-1.129040'}		Force	2018-07		
90	anti-social-behaviour		66581203	{'latitude': '52.636250', 'street': {'id': 883415, 'name': 'On or near Shopping Area'}, 'longitude': '-1.133691'}		Force	2018-07		
91	anti-social-behaviour		66581201	{'latitude': '52.636721', 'street': {'id': 883359, 'name': 'On or near Haymarket'}, 'longitude': '-1.132898'}		Force	2018-07		
92	anti-social-behaviour		66578048	{'latitude': '52.631380', 'street': {'id': 883322, 'name': 'On or near Upper Brown Street'}, 'longitude': '-1.135338'}		Force	2018-07		
93	anti-social-behaviour		66578050	{'latitude': '52.634474', 'street': {'id': 883498, 'name': 'On or near Kate Street'}, 'longitude': '-1.149197'}		Force	2018-07		
94	anti-social-behaviour		66578051	{'latitude': '52.637005', 'street': {'id': 883354, 'name': 'On or near Kildare Street'}, 'longitude': '-1.130026'}		Force	2018-07		
95	anti-social-behaviour		66578057	{'latitude': '52.632352', 'street': {'id': 883486, 'name': 'On or near Narborough Road North'}, 'longitude': '-1.146549'}		Force	2018-07		
96	anti-social-behaviour		66581188	{'latitude': '52.635434', 'street': {'id': 883399, 'name': 'On or near Conference/exhibition Centre'}, 'longitude': '-1.126658'}		Force	2018-07		
97	anti-social-behaviour		66581166	{'latitude': '52.634049', 'street': {'id': 883378, 'name': 'On or near Colton Street'}, 'longitude': '-1.127765'}		Force	2018-07		
98	anti-social-behaviour		66573397	{'latitude': '52.627491', 'street': {'id': 883201, 'name': 'On or near Mill Hill Lane'}, 'longitude': '-1.118661'}		Force	2018-07		
99	anti-social-behaviour		66578790	{'latitude': '52.626988', 'street': {'id': 882307, 'name': 'On or near Further/higher Educational Building'}, 'longitude': '-1.123532'}		Force	2018-07		
100	anti-social-behaviour		66578791	{'latitude': '52.633161', 'street': {'id': 883433, 'name': 'On or near Castle Street'}, 'longitude': '-1.140416'}		Force	2018-07		
101	anti-social-behaviour		66578022	{'latitude': '52.639768', 'street': {'id': 883239, 'name': 'On or near Parking Area'}, 'longitude': '-1.131597'}		Force	2018-07		
102	anti-social-behaviour		66578028	{'latitude': '52.625508', 'street': {'id': 882488, 'name': 'On or near Beckingham Road'}, 'longitude': '-1.111920'}		Force	2018-07		
103	anti-social-behaviour		66578030	{'latitude': '52.628499', 'street': {'id': 883248, 'name': 'On or near Trinity Lane'}, 'longitude': '-1.132174'}		Force	2018-07		
104	anti-social-behaviour		66578037	{'latitude': '52.637077', 'street': {'id': 883298, 'name': 'On or near Parking Area'}, 'longitude': '-1.131221'}		Force	2018-07		
105	anti-social-behaviour		66578041	{'latitude': '52.639814', 'street': {'id': 883235, 'name': 'On or near Sanvey Gate'}, 'longitude': '-1.139118'}		Force	2018-07		
106	anti-social-behaviour		66578044	{'latitude': '52.633145', 'street': {'id': 883365, 'name': 'On or near Granby Street'}, 'longitude': '-1.129511'}		Force	2018-07		
107	anti-social-behaviour		66582099	{'latitude': '52.633018', 'street': {'id': 883123, 'name': 'On or near Melbourne Road'}, 'longitude': '-1.113674'}		Force	2018-07		
108	anti-social-behaviour		66578813	{'latitude': '52.626908', 'street': {'id': 882376, 'name': 'On or near Onslow Street'}, 'longitude': '-1.114064'}		Force	2018-07		
109	anti-social-behaviour		66578822	{'latitude': '52.625777', 'street': {'id': 882372, 'name': 'On or near Further/higher Educational Building'}, 'longitude': '-1.125181'}		Force	2018-07		
110	anti-social-behaviour		66578827	{'latitude': '52.632277', 'street': {'id': 883228, 'name': 'On or near Apollo Court'}, 'longitude': '-1.117885'}		Force	2018-07		
111	anti-social-behaviour		66578828	{'latitude': '52.636250', 'street': {'id': 883415, 'name': 'On or near Shopping Area'}, 'longitude': '-1.133691'}		Force	2018-07		
112	anti-social-behaviour		66578831	{'latitude': '52.631166', 'street': {'id': 883520, 'name': 'On or near Braunstone Gate'}, 'longitude': '-1.145493'}		Force	2018-07		
113	anti-social-behaviour		66582092	{'latitude': '52.632073', 'street': {'id': 883364, 'name': 'On or near Granby Street'}, 'longitude': '-1.126829'}		Force	2018-07		
114	anti-social-behaviour		66574923	{'latitude': '52.626908', 'street': {'id': 882376, 'name': 'On or near Onslow Street'}, 'longitude': '-1.114064'}		Force	2018-07		
115	anti-social-behaviour		66574276	{'latitude': '52.628925', 'street': {'id': 883167, 'name': 'On or near Chandos Street'}, 'longitude': '-1.112087'}		Force	2018-07		
116	anti-social-behaviour		66582065	{'latitude': '52.625201', 'street': {'id': 882420, 'name': 'On or near St James Road'}, 'longitude': '-1.114231'}		Force	2018-07		
117	anti-social-behaviour		66579291	{'latitude': '52.628177', 'street': {'id': 883452, 'name': 'On or near Barclay Street'}, 'longitude': '-1.154830'}		Force	2018-07		
118	anti-social-behaviour		66579302	{'latitude': '52.634369', 'street': {'id': 883214, 'name': 'On or near Pegasus Close'}, 'longitude': '-1.117533'}		Force	2018-07		
119	anti-social-behaviour		66582062	{'latitude': '52.633333', 'street': {'id': 883526, 'name': 'On or near Arundel Street'}, 'longitude': '-1.151790'}		Force	2018-07		
120	anti-social-behaviour		66582059	{'latitude': '52.630156', 'street': {'id': 883478, 'name': 'On or near Ruding Road'}, 'longitude': '-1.147463'}		Force	2018-07		
121	anti-social-behaviour		66582061	{'latitude': '52.634522', 'street': {'id': 883082, 'name': 'On or near Taurus Close'}, 'longitude': '-1.116318'}		Force	2018-07		
122	anti-social-behaviour		66581761	{'latitude': '52.633192', 'street': {'id': 883227, 'name': 'On or near Atlas Close'}, 'longitude': '-1.117719'}		Force	2018-07		
123	anti-social-behaviour		66573395	{'latitude': '52.630054', 'street': {'id': 883351, 'name': 'On or near Lower Brown Street'}, 'longitude': '-1.134685'}		Force	2018-07		
124	anti-social-behaviour		66573385	{'latitude': '52.637069', 'street': {'id': 883413, 'name': 'On or near Supermarket'}, 'longitude': '-1.131414'}		Force	2018-07		
125	anti-social-behaviour		66581517	{'latitude': '52.637005', 'street': {'id': 883354, 'name': 'On or near Kildare Street'}, 'longitude': '-1.130026'}		Force	2018-07		
126	anti-social-behaviour		66574924	{'latitude': '52.625325', 'street': {'id': 882469, 'name': 'On or near Draper Street'}, 'longitude': '-1.110284'}		Force	2018-07		
127	anti-social-behaviour		66581254	{'latitude': '52.636110', 'street': {'id': 883290, 'name': 'On or near Humberstone Gate'}, 'longitude': '-1.131802'}		Force	2018-07		
128	anti-social-behaviour		66580717	{'latitude': '52.636250', 'street': {'id': 883415, 'name': 'On or near Shopping Area'}, 'longitude': '-1.133691'}		Force	2018-07		
129	anti-social-behaviour		66580710	{'latitude': '52.629292', 'street': {'id': 883212, 'name': 'On or near Severn Street'}, 'longitude': '-1.117842'}		Force	2018-07		
130	anti-social-behaviour		66578555	{'latitude': '52.632469', 'street': {'id': 883334, 'name': 'On or near Pocklingtons Walk'}, 'longitude': '-1.134164'}		Force	2018-07		
131	anti-social-behaviour		66574944	{'latitude': '52.626426', 'street': {'id': 882499, 'name': 'On or near Abingdon Road'}, 'longitude': '-1.114546'}		Force	2018-07		
132	anti-social-behaviour		66580460	{'latitude': '52.637674', 'street': {'id': 883469, 'name': 'On or near Tudor Road'}, 'longitude': '-1.147819'}		Force	2018-07		
133	anti-social-behaviour		66575824	{'latitude': '52.621287', 'street': {'id': 882350, 'name': 'On or near Sports/recreation Area'}, 'longitude': '-1.136881'}		Force	2018-07		
134	anti-social-behaviour		66578548	{'latitude': '52.636721', 'street': {'id': 883359, 'name': 'On or near Haymarket'}, 'longitude': '-1.132898'}		Force	2018-07		
135	anti-social-behaviour		66578565	{'latitude': '52.635974', 'street': {'id': 883429, 'name': 'On or near Highcross Street'}, 'longitude': '-1.139045'}		Force	2018-07		
136	anti-social-behaviour		66580459	{'latitude': '52.638691', 'street': {'id': 883400, 'name': 'On or near Nightclub'}, 'longitude': '-1.131914'}		Force	2018-07		
137	anti-social-behaviour		66580456	{'latitude': '52.637005', 'street': {'id': 883354, 'name': 'On or near Kildare Street'}, 'longitude': '-1.130026'}		Force	2018-07		
138	anti-social-behaviour		66580956	{'latitude': '52.626100', 'street': {'id': 882498, 'name': 'On or near Abingdon Road'}, 'longitude': '-1.115350'}		Force	2018-07		
139	anti-social-behaviour		66579028	{'latitude': '52.627147', 'street': {'id': 883047, 'name': 'On or near St Albans Road'}, 'longitude': '-1.117117'}		Force	2018-07		
140	anti-social-behaviour		66579029	{'latitude': '52.631611', 'street': {'id': 883264, 'name': 'On or near Slate Street'}, 'longitude': '-1.122612'}		Force	2018-07		
141	anti-social-behaviour		66579032	{'latitude': '52.630277', 'street': {'id': 883494, 'name': 'On or near Latimer Street'}, 'longitude': '-1.150593'}		Force	2018-07		
142	anti-social-behaviour		66579035	{'latitude': '52.636721', 'street': {'id': 883359, 'name': 'On or near Haymarket'}, 'longitude': '-1.132898'}		Force	2018-07		
143	anti-social-behaviour		66579045	{'latitude': '52.628177', 'street': {'id': 883452, 'name': 'On or near Barclay Street'}, 'longitude': '-1.154830'}		Force	2018-07		
144	anti-social-behaviour		66580955	{'latitude': '52.626426', 'street': {'id': 882499, 'name': 'On or near Abingdon Road'}, 'longitude': '-1.114546'}		Force	2018-07		
145	anti-social-behaviour		66573381	{'latitude': '52.631910', 'street': {'id': 883501, 'name': 'On or near Hinckley Road'}, 'longitude': '-1.152660'}		Force	2018-07		
146	anti-social-behaviour		66579368	{'latitude': '52.637077', 'street': {'id': 883298, 'name': 'On or near Parking Area'}, 'longitude': '-1.131221'}		Force	2018-07		
147	anti-social-behaviour		66573355	{'latitude': '52.636250', 'street': {'id': 883415, 'name': 'On or near Shopping Area'}, 'longitude': '-1.133691'}		Force	2018-07		
148	anti-social-behaviour		66579331	{'latitude': '52.631672', 'street': {'id': 883106, 'name': 'On or near Oxendon Street'}, 'longitude': '-1.115194'}		Force	2018-07		
149	anti-social-behaviour		66575828	{'latitude': '52.635434', 'street': {'id': 883399, 'name': 'On or near Conference/exhibition Centre'}, 'longitude': '-1.126658'}		Force	2018-07		
150	anti-social-behaviour		66579578	{'latitude': '52.637077', 'street': {'id': 883298, 'name': 'On or near Parking Area'}, 'longitude': '-1.131221'}		Force	2018-07		
151	anti-social-behaviour		66575839	{'latitude': '52.626426', 'street': {'id': 882499, 'name': 'On or near Abingdon Road'}, 'longitude': '-1.114546'}		Force	2018-07		
152	anti-social-behaviour		66579364	{'latitude': '52.640274', 'street': {'id': 883240, 'name': 'On or near Wilton Street'}, 'longitude': '-1.129547'}		Force	2018-07		
153	anti-social-behaviour		66579365	{'latitude': '52.635434', 'street': {'id': 883399, 'name': 'On or near Conference/exhibition Centre'}, 'longitude': '-1.126658'}		Force	2018-07		
154	anti-social-behaviour		66579374	{'latitude': '52.630016', 'street': {'id': 883514, 'name': 'On or near Cranmer Street'}, 'longitude': '-1.149209'}		Force	2018-07		
155	anti-social-behaviour		66579378	{'latitude': '52.633265', 'street': {'id': 883277, 'name': 'On or near Fox Street'}, 'longitude': '-1.125106'}		Force	2018-07		
156	anti-social-behaviour		66579381	{'latitude': '52.636250', 'street': {'id': 883415, 'name': 'On or near Shopping Area'}, 'longitude': '-1.133691'}		Force	2018-07		
157	anti-social-behaviour		66579392	{'latitude': '52.635434', 'street': {'id': 883399, 'name': 'On or near Conference/exhibition Centre'}, 'longitude': '-1.126658'}		Force	2018-07		
158	anti-social-behaviour		66579394	{'latitude': '52.636256', 'street': {'id': 883316, 'name': 'On or near Wimbledon Street'}, 'longitude': '-1.125933'}		Force	2018-07		
159	anti-social-behaviour		66580697	{'latitude': '52.620053', 'street': {'id': 1319941, 'name': 'On or near Leicester City Football Club'}, 'longitude': '-1.141500'}		Force	2018-07		
160	anti-social-behaviour		66580693	{'latitude': '52.625201', 'street': {'id': 882420, 'name': 'On or near St James Road'}, 'longitude': '-1.114231'}		Force	2018-07		
161	anti-social-behaviour		66579073	{'latitude': '52.630156', 'street': {'id': 883478, 'name': 'On or near Ruding Road'}, 'longitude': '-1.147463'}		Force	2018-07		
162	anti-social-behaviour		66579075	{'latitude': '52.626100', 'street': {'id': 882498, 'name': 'On or near Abingdon Road'}, 'longitude': '-1.115350'}		Force	2018-07		
163	anti-social-behaviour		66579084	{'latitude': '52.626426', 'street': {'id': 882499, 'name': 'On or near Abingdon Road'}, 'longitude': '-1.114546'}		Force	2018-07		
164	anti-social-behaviour		66579087	{'latitude': '52.628588', 'street': {'id': 883223, 'name': 'On or near Gotham Street'}, 'longitude': '-1.119910'}		Force	2018-07		
165	anti-social-behaviour		66580684	{'latitude': '52.635006', 'street': {'id': 883394, 'name': 'On or near Nightclub'}, 'longitude': '-1.127066'}		Force	2018-07		
166	anti-social-behaviour		66580681	{'latitude': '52.634474', 'street': {'id': 883498, 'name': 'On or near Kate Street'}, 'longitude': '-1.149197'}		Force	2018-07		
167	anti-social-behaviour		66580677	{'latitude': '52.629797', 'street': {'id': 883332, 'name': 'On or near Princess Road Backways'}, 'longitude': '-1.130272'}		Force	2018-07		
168	anti-social-behaviour		66580448	{'latitude': '52.627664', 'street': {'id': 883457, 'name': 'On or near Supermarket'}, 'longitude': '-1.149757'}		Force	2018-07		
169	anti-social-behaviour		66579840	{'latitude': '52.627664', 'street': {'id': 883457, 'name': 'On or near Supermarket'}, 'longitude': '-1.149757'}		Force	2018-07		
170	anti-social-behaviour		66580651	{'latitude': '52.626908', 'street': {'id': 882376, 'name': 'On or near Onslow Street'}, 'longitude': '-1.114064'}		Force	2018-07		
171	anti-social-behaviour		66579867	{'latitude': '52.624723', 'street': {'id': 882325, 'name': 'On or near Walnut Street'}, 'longitude': '-1.138335'}		Force	2018-07		
172	anti-social-behaviour		66579869	{'latitude': '52.628757', 'street': {'id': 883461, 'name': 'On or near Western Boulevard'}, 'longitude': '-1.143043'}		Force	2018-07		
173	anti-social-behaviour		66579879	{'latitude': '52.641932', 'street': {'id': 884323, 'name': 'On or near Montreal Road'}, 'longitude': '-1.123898'}		Force	2018-07		
174	anti-social-behaviour		66579880	{'latitude': '52.633680', 'street': {'id': 883402, 'name': 'On or near Supermarket'}, 'longitude': '-1.130225'}		Force	2018-07		
175	anti-social-behaviour		66579881	{'latitude': '52.637712', 'street': {'id': 883292, 'name': 'On or near Haymarket Bus Station'}, 'longitude': '-1.130751'}		Force	2018-07		
176	anti-social-behaviour		66579885	{'latitude': '52.628685', 'street': {'id': 883131, 'name': 'On or near Laurel Road'}, 'longitude': '-1.109979'}		Force	2018-07		
177	anti-social-behaviour		66579893	{'latitude': '52.637674', 'street': {'id': 883469, 'name': 'On or near Tudor Road'}, 'longitude': '-1.147819'}		Force	2018-07		
178	anti-social-behaviour		66579900	{'latitude': '52.632246', 'street': {'id': 883311, 'name': 'On or near York Street'}, 'longitude': '-1.129529'}		Force	2018-07		
179	anti-social-behaviour		66579053	{'latitude': '52.633018', 'street': {'id': 883123, 'name': 'On or near Melbourne Road'}, 'longitude': '-1.113674'}		Force	2018-07		
180	anti-social-behaviour		66579055	{'latitude': '52.633161', 'street': {'id': 883433, 'name': 'On or near Castle Street'}, 'longitude': '-1.140416'}		Force	2018-07		
181	anti-social-behaviour		66579059	{'latitude': '52.633145', 'street': {'id': 883365, 'name': 'On or near Granby Street'}, 'longitude': '-1.129511'}		Force	2018-07		
182	anti-social-behaviour		66573359	{'latitude': '52.629835', 'street': {'id': 883303, 'name': 'On or near Parking Area'}, 'longitude': '-1.133005'}		Force	2018-07		
183	anti-social-behaviour		66579804	{'latitude': '52.636256', 'street': {'id': 883316, 'name': 'On or near Wimbledon Street'}, 'longitude': '-1.125933'}		Force	2018-07		
184	anti-social-behaviour		66573358	{'latitude': '52.632783', 'street': {'id': 883484, 'name': 'On or near Norfolk Street'}, 'longitude': '-1.151520'}		Force	2018-07		
185	anti-social-behaviour		66573357	{'latitude': '52.642703', 'street': {'id': 884351, 'name': 'On or near Gas Street'}, 'longitude': '-1.131051'}		Force	2018-07		
186	anti-social-behaviour		66579824	{'latitude': '52.637069', 'street': {'id': 883413, 'name': 'On or near Supermarket'}, 'longitude': '-1.131414'}		Force	2018-07		
187	anti-social-behaviour		66580492	{'latitude': '52.628075', 'street': {'id': 883046, 'name': 'On or near St Stephens Road'}, 'longitude': '-1.113804'}		Force	2018-07		
188	anti-social-behaviour		66580487	{'latitude': '52.634195', 'street': {'id': 883502, 'name': 'On or near Glenfield Road East'}, 'longitude': '-1.150414'}		Force	2018-07		
189	anti-social-behaviour		66574273	{'latitude': '52.630156', 'street': {'id': 883478, 'name': 'On or near Ruding Road'}, 'longitude': '-1.147463'}		Force	2018-07		
190	anti-social-behaviour		66575832	{'latitude': '52.642641', 'street': {'id': 884320, 'name': 'On or near Taylor Road'}, 'longitude': '-1.122628'}		Force	2018-07		
191	anti-social-behaviour		66574613	{'latitude': '52.635767', 'street': {'id': 883291, 'name': 'On or near High Street'}, 'longitude': '-1.135267'}		Force	2018-07		
192	anti-social-behaviour		66580476	{'latitude': '52.633145', 'street': {'id': 883365, 'name': 'On or near Granby Street'}, 'longitude': '-1.129511'}		Force	2018-07		
193	anti-social-behaviour		66580472	{'latitude': '52.627126', 'street': {'id': 882309, 'name': 'On or near Eastern Boulevard'}, 'longitude': '-1.142455'}		Force	2018-07		
194	anti-social-behaviour		66580468	{'latitude': '52.623986', 'street': {'id': 882270, 'name': 'On or near Walton Street'}, 'longitude': '-1.150833'}		Force	2018-07		
195	anti-social-behaviour		66580465	{'latitude': '52.633347', 'street': {'id': 883387, 'name': 'On or near Berridge Street'}, 'longitude': '-1.135034'}		Force	2018-07		
196	anti-social-behaviour		66579609	{'latitude': '52.628685', 'street': {'id': 883131, 'name': 'On or near Laurel Road'}, 'longitude': '-1.109979'}		Force	2018-07		
197	anti-social-behaviour		66575833	{'latitude': '52.637407', 'street': {'id': 883409, 'name': 'On or near Supermarket'}, 'longitude': '-1.133343'}		Force	2018-07		
198	anti-social-behaviour		66580451	{'latitude': '52.626908', 'street': {'id': 882376, 'name': 'On or near Onslow Street'}, 'longitude': '-1.114064'}		Force	2018-07		
199	anti-social-behaviour		66579627	{'latitude': '52.636033', 'street': {'id': 883368, 'name': 'On or near Freeschool Lane'}, 'longitude': '-1.138424'}		Force	2018-07		
200	anti-social-behaviour		66580432	{'latitude': '52.635767', 'street': {'id': 883291, 'name': 'On or near High Street'}, 'longitude': '-1.135267'}		Force	2018-07		
201	anti-social-behaviour		66579635	{'latitude': '52.625325', 'street': {'id': 882469, 'name': 'On or near Draper Street'}, 'longitude': '-1.110284'}		Force	2018-07		
202	anti-social-behaviour		66579640	{'latitude': '52.620394', 'street': {'id': 882446, 'name': 'On or near Knighton Park Road'}, 'longitude': '-1.114564'}		Force	2018-07		
203	anti-social-behaviour		66579643	{'latitude': '52.643251', 'street': {'id': 884358, 'name': 'On or near Sports/recreation Area'}, 'longitude': '-1.138326'}		Force	2018-07		
204	anti-social-behaviour		66579644	{'latitude': '52.629348', 'street': {'id': 883343, 'name': 'On or near Museum Square'}, 'longitude': '-1.129040'}		Force	2018-07		
205	anti-social-behaviour		66579646	{'latitude': '52.627491', 'street': {'id': 883201, 'name': 'On or near Mill Hill Lane'}, 'longitude': '-1.118661'}		Force	2018-07		
206	anti-social-behaviour		66579648	{'latitude': '52.634765', 'street': {'id': 883470, 'name': 'On or near Tudor Close'}, 'longitude': '-1.147122'}		Force	2018-07		
207	anti-social-behaviour		66579651	{'latitude': '52.639335', 'street': {'id': 883362, 'name': 'On or near Gravel Street'}, 'longitude': '-1.133940'}		Force	2018-07		
208	anti-social-behaviour		66579652	{'latitude': '52.628804', 'street': {'id': 883331, 'name': 'On or near Rawson Street'}, 'longitude': '-1.129716'}		Force	2018-07		
209	anti-social-behaviour		66580077	{'latitude': '52.625527', 'street': {'id': 882472, 'name': 'On or near Dashwood Road'}, 'longitude': '-1.110945'}		Force	2018-07		
210	anti-social-behaviour		66580067	{'latitude': '52.632887', 'street': {'id': 883388, 'name': 'On or near Belvoir Street'}, 'longitude': '-1.131127'}		Force	2018-07		
211	anti-social-behaviour		66580072	{'latitude': '52.636256', 'street': {'id': 883316, 'name': 'On or near Wimbledon Street'}, 'longitude': '-1.125933'}		Force	2018-07		
212	anti-social-behaviour		66580074	{'latitude': '52.632783', 'street': {'id': 883484, 'name': 'On or near Norfolk Street'}, 'longitude': '-1.151520'}		Force	2018-07		
213	anti-social-behaviour		66580081	{'latitude': '52.632073', 'street': {'id': 883364, 'name': 'On or near Granby Street'}, 'longitude': '-1.126829'}		Force	2018-07		
214	anti-social-behaviour		66580086	{'latitude': '52.636790', 'street': {'id': 883288, 'name': 'On or near Haymarket'}, 'longitude': '-1.131360'}		Force	2018-07		
215	anti-social-behaviour		66580088	{'latitude': '52.633347', 'street': {'id': 883387, 'name': 'On or near Berridge Street'}, 'longitude': '-1.135034'}		Force	2018-07		
216	anti-social-behaviour		66580090	"{'latitude': '52.621799', 'street': {'id': 882359, 'name': ""On or near Mayor's Walk""}, 'longitude': '-1.124581'}"		Force	2018-07		
217	anti-social-behaviour		66580091	{'latitude': '52.631380', 'street': {'id': 883322, 'name': 'On or near Upper Brown Street'}, 'longitude': '-1.135338'}		Force	2018-07		
218	anti-social-behaviour		66580096	{'latitude': '52.635121', 'street': {'id': 883430, 'name': 'On or near High Street'}, 'longitude': '-1.139077'}		Force	2018-07		
219	anti-social-behaviour		66580109	{'latitude': '52.634769', 'street': {'id': 883525, 'name': 'On or near Bath Lane'}, 'longitude': '-1.142734'}		Force	2018-07		
220	anti-social-behaviour		66580115	{'latitude': '52.626100', 'street': {'id': 882498, 'name': 'On or near Abingdon Road'}, 'longitude': '-1.115350'}		Force	2018-07		
221	anti-social-behaviour		66580123	{'latitude': '52.625345', 'street': {'id': 882276, 'name': 'On or near Sheffield Street'}, 'longitude': '-1.148546'}		Force	2018-07		
222	anti-social-behaviour		66574272	{'latitude': '52.630684', 'street': {'id': 883373, 'name': 'On or near Dunkirk Street'}, 'longitude': '-1.128659'}		Force	2018-07		
223	anti-social-behaviour		66574616	{'latitude': '52.625345', 'street': {'id': 882276, 'name': 'On or near Sheffield Street'}, 'longitude': '-1.148546'}		Force	2018-07		
224	anti-social-behaviour		66574624	{'latitude': '52.626875', 'street': {'id': 882383, 'name': 'On or near Further/higher Educational Building'}, 'longitude': '-1.120476'}		Force	2018-07		
225	anti-social-behaviour		66574628	{'latitude': '52.639768', 'street': {'id': 883239, 'name': 'On or near Parking Area'}, 'longitude': '-1.131597'}		Force	2018-07		
226	anti-social-behaviour		66573364	{'latitude': '52.624424', 'street': {'id': 882275, 'name': 'On or near Stuart Street'}, 'longitude': '-1.150485'}		Force	2018-07		
227	anti-social-behaviour		66574291	{'latitude': '52.634049', 'street': {'id': 883378, 'name': 'On or near Colton Street'}, 'longitude': '-1.127765'}		Force	2018-07		
228	anti-social-behaviour		66574269	{'latitude': '52.625345', 'street': {'id': 882276, 'name': 'On or near Sheffield Street'}, 'longitude': '-1.148546'}		Force	2018-07		
229	anti-social-behaviour		66574579	{'latitude': '52.627335', 'street': {'id': 883048, 'name': 'On or near Skipworth Street'}, 'longitude': '-1.114705'}		Force	2018-07		
230	anti-social-behaviour		66574588	{'latitude': '52.636536', 'street': {'id': 883356, 'name': 'On or near Humberstone Gate'}, 'longitude': '-1.128602'}		Force	2018-07		
231	anti-social-behaviour		66574267	{'latitude': '52.635121', 'street': {'id': 883430, 'name': 'On or near High Street'}, 'longitude': '-1.139077'}		Force	2018-07		
232	anti-social-behaviour		66574892	{'latitude': '52.634765', 'street': {'id': 883470, 'name': 'On or near Tudor Close'}, 'longitude': '-1.147122'}		Force	2018-07		
233	anti-social-behaviour		66574894	{'latitude': '52.634765', 'street': {'id': 883470, 'name': 'On or near Tudor Close'}, 'longitude': '-1.147122'}		Force	2018-07		
234	anti-social-behaviour		66574898	{'latitude': '52.631392', 'street': {'id': 883371, 'name': 'On or near East Street'}, 'longitude': '-1.127064'}		Force	2018-07		
235	anti-social-behaviour		66574257	{'latitude': '52.622751', 'street': {'id': 882299, 'name': 'On or near Bisley Street'}, 'longitude': '-1.150355'}		Force	2018-07		
236	anti-social-behaviour		66574258	{'latitude': '52.627272', 'street': {'id': 882212, 'name': 'On or near Browning Street'}, 'longitude': '-1.152793'}		Force	2018-07		
237	anti-social-behaviour		66573988	{'latitude': '52.636972', 'street': {'id': 883467, 'name': 'On or near Tyrrell Street'}, 'longitude': '-1.151527'}		Force	2018-07		
238	anti-social-behaviour		66573990	{'latitude': '52.637712', 'street': {'id': 883292, 'name': 'On or near Haymarket Bus Station'}, 'longitude': '-1.130751'}		Force	2018-07		
239	anti-social-behaviour		66574296	{'latitude': '52.624661', 'street': {'id': 882419, 'name': 'On or near St James Terrace'}, 'longitude': '-1.114094'}		Force	2018-07		
240	anti-social-behaviour		66574930	{'latitude': '52.625201', 'street': {'id': 882420, 'name': 'On or near St James Road'}, 'longitude': '-1.114231'}		Force	2018-07		
241	anti-social-behaviour		66574931	{'latitude': '52.632993', 'street': {'id': 883396, 'name': 'On or near Nightclub'}, 'longitude': '-1.129633'}		Force	2018-07		
242	anti-social-behaviour		66574933	{'latitude': '52.626674', 'street': {'id': 882379, 'name': 'On or near Evington Road'}, 'longitude': '-1.116358'}		Force	2018-07		
243	anti-social-behaviour		66574935	{'latitude': '52.629778', 'street': {'id': 883285, 'name': 'On or near Brookhouse Avenue'}, 'longitude': '-1.121585'}		Force	2018-07		
244	anti-social-behaviour		66574936	{'latitude': '52.640715', 'street': {'id': 884342, 'name': 'On or near Wood Street'}, 'longitude': '-1.130854'}		Force	2018-07		
245	anti-social-behaviour		66575177	{'latitude': '52.627627', 'street': {'id': 883455, 'name': 'On or near Gaul Street'}, 'longitude': '-1.148325'}		Force	2018-07		
246	anti-social-behaviour		66580076	{'latitude': '52.636243', 'street': {'id': 883321, 'name': 'On or near Vestry Street'}, 'longitude': '-1.127810'}		Force	2018-07		
247	anti-social-behaviour		66575191	{'latitude': '52.626489', 'street': {'id': 882334, 'name': 'On or near Lower Hastings Street'}, 'longitude': '-1.129097'}		Force	2018-07		
248	anti-social-behaviour		66575192	{'latitude': '52.635006', 'street': {'id': 883394, 'name': 'On or near Nightclub'}, 'longitude': '-1.127066'}		Force	2018-07		
249	anti-social-behaviour		66575204	{'latitude': '52.629835', 'street': {'id': 883303, 'name': 'On or near Parking Area'}, 'longitude': '-1.133005'}		Force	2018-07		
250	anti-social-behaviour		66575206	{'latitude': '52.635005', 'street': {'id': 883219, 'name': 'On or near Jupiter Close'}, 'longitude': '-1.117284'}		Force	2018-07		
251	anti-social-behaviour		66575208	{'latitude': '52.639138', 'street': {'id': 883355, 'name': 'On or near Junior Street'}, 'longitude': '-1.137683'}		Force	2018-07		
252	anti-social-behaviour		66575210	{'latitude': '52.624424', 'street': {'id': 882275, 'name': 'On or near Stuart Street'}, 'longitude': '-1.150485'}		Force	2018-07		
253	anti-social-behaviour		66574621	{'latitude': '52.630212', 'street': {'id': 883271, 'name': 'On or near Nelson Street'}, 'longitude': '-1.124369'}		Force	2018-07		
254	anti-social-behaviour		66573660	{'latitude': '52.641646', 'street': {'id': 884340, 'name': 'On or near Yarmouth Street'}, 'longitude': '-1.131486'}		Force	2018-07		
255	anti-social-behaviour		66573655	{'latitude': '52.624424', 'street': {'id': 882275, 'name': 'On or near Stuart Street'}, 'longitude': '-1.150485'}		Force	2018-07		
256	anti-social-behaviour		66573354	{'latitude': '52.624935', 'street': {'id': 882443, 'name': 'On or near Lyme Road'}, 'longitude': '-1.109849'}		Force	2018-07		
257	anti-social-behaviour		66573349	{'latitude': '52.634369', 'street': {'id': 883214, 'name': 'On or near Pegasus Close'}, 'longitude': '-1.117533'}		Force	2018-07		
258	anti-social-behaviour		66573347	{'latitude': '52.635974', 'street': {'id': 883429, 'name': 'On or near Highcross Street'}, 'longitude': '-1.139045'}		Force	2018-07		
259	anti-social-behaviour		66573673	{'latitude': '52.631373', 'street': {'id': 883503, 'name': 'On or near Foxon Street'}, 'longitude': '-1.145474'}		Force	2018-07		
260	anti-social-behaviour		66575858	{'latitude': '52.636250', 'street': {'id': 883415, 'name': 'On or near Shopping Area'}, 'longitude': '-1.133691'}		Force	2018-07		
261	anti-social-behaviour		66576521	{'latitude': '52.636721', 'street': {'id': 883359, 'name': 'On or near Haymarket'}, 'longitude': '-1.132898'}		Force	2018-07		
262	anti-social-behaviour		66579871	{'latitude': '52.637674', 'street': {'id': 883469, 'name': 'On or near Tudor Road'}, 'longitude': '-1.147819'}		Force	2018-07		
263	anti-social-behaviour		66575497	{'latitude': '52.633145', 'street': {'id': 883365, 'name': 'On or near Granby Street'}, 'longitude': '-1.129511'}		Force	2018-07		
264	anti-social-behaviour		66575498	{'latitude': '52.629293', 'street': {'id': 1319949, 'name': 'On or near Bede Park'}, 'longitude': '-1.144983'}		Force	2018-07		
265	anti-social-behaviour		66575519	{'latitude': '52.633879', 'street': {'id': 883358, 'name': 'On or near Horsefair Street'}, 'longitude': '-1.132821'}		Force	2018-07		
266	anti-social-behaviour		66575524	{'latitude': '52.632246', 'street': {'id': 883311, 'name': 'On or near York Street'}, 'longitude': '-1.129529'}		Force	2018-07		
267	anti-social-behaviour		66574289	{'latitude': '52.626875', 'street': {'id': 882383, 'name': 'On or near Further/higher Educational Building'}, 'longitude': '-1.120476'}		Force	2018-07		
268	anti-social-behaviour		66581950	{'latitude': '52.627664', 'street': {'id': 883457, 'name': 'On or near Supermarket'}, 'longitude': '-1.149757'}		Force	2018-07		
269	anti-social-behaviour		66575217	{'latitude': '52.635826', 'street': {'id': 883521, 'name': 'On or near Bosworth Street'}, 'longitude': '-1.149673'}		Force	2018-07		
270	anti-social-behaviour		66575223	{'latitude': '52.629348', 'street': {'id': 883343, 'name': 'On or near Museum Square'}, 'longitude': '-1.129040'}		Force	2018-07		
271	anti-social-behaviour		66575227	{'latitude': '52.636790', 'street': {'id': 883288, 'name': 'On or near Haymarket'}, 'longitude': '-1.131360'}		Force	2018-07		
272	anti-social-behaviour		66575233	{'latitude': '52.629293', 'street': {'id': 1319949, 'name': 'On or near Bede Park'}, 'longitude': '-1.144983'}		Force	2018-07		
273	anti-social-behaviour		66575234	{'latitude': '52.637147', 'street': {'id': 883466, 'name': 'On or near Vaughan Street'}, 'longitude': '-1.149499'}		Force	2018-07		
274	anti-social-behaviour		66575548	{'latitude': '52.629687', 'street': {'id': 883091, 'name': 'On or near St Peters Road'}, 'longitude': '-1.115352'}		Force	2018-07		
275	anti-social-behaviour		66575550	{'latitude': '52.628455', 'street': {'id': 883454, 'name': 'On or near Harrow Road'}, 'longitude': '-1.153435'}		Force	2018-07		
276	anti-social-behaviour		66575556	{'latitude': '52.634765', 'street': {'id': 883470, 'name': 'On or near Tudor Close'}, 'longitude': '-1.147122'}		Force	2018-07		
277	anti-social-behaviour		66575557	{'latitude': '52.634379', 'street': {'id': 883398, 'name': 'On or near Nightclub'}, 'longitude': '-1.132294'}		Force	2018-07		
278	anti-social-behaviour		66576173	{'latitude': '52.625325', 'street': {'id': 882469, 'name': 'On or near Draper Street'}, 'longitude': '-1.110284'}		Force	2018-07		
279	anti-social-behaviour		66576186	{'latitude': '52.629293', 'street': {'id': 1319949, 'name': 'On or near Bede Park'}, 'longitude': '-1.144983'}		Force	2018-07		
280	anti-social-behaviour		66576189	{'latitude': '52.627112', 'street': {'id': 882209, 'name': 'On or near Narborough Road'}, 'longitude': '-1.150477'}		Force	2018-07		
281	anti-social-behaviour		66576192	{'latitude': '52.628177', 'street': {'id': 883452, 'name': 'On or near Barclay Street'}, 'longitude': '-1.154830'}		Force	2018-07		
282	anti-social-behaviour		66576196	{'latitude': '52.641553', 'street': {'id': 884331, 'name': 'On or near Chester Close'}, 'longitude': '-1.121290'}		Force	2018-07		
283	anti-social-behaviour		66576200	{'latitude': '52.630684', 'street': {'id': 883373, 'name': 'On or near Dunkirk Street'}, 'longitude': '-1.128659'}		Force	2018-07		
284	anti-social-behaviour		66576201	{'latitude': '52.623521', 'street': {'id': 882292, 'name': 'On or near Eastleigh Road'}, 'longitude': '-1.151167'}		Force	2018-07		
285	anti-social-behaviour		66573648	{'latitude': '52.633145', 'street': {'id': 883365, 'name': 'On or near Granby Street'}, 'longitude': '-1.129511'}		Force	2018-07		
286	anti-social-behaviour		66576533	{'latitude': '52.627335', 'street': {'id': 883048, 'name': 'On or near Skipworth Street'}, 'longitude': '-1.114705'}		Force	2018-07		
287	anti-social-behaviour		66576545	{'latitude': '52.632887', 'street': {'id': 883388, 'name': 'On or near Belvoir Street'}, 'longitude': '-1.131127'}		Force	2018-07		
288	anti-social-behaviour		66576548	{'latitude': '52.632664', 'street': {'id': 883590, 'name': 'On or near Andrewes Close'}, 'longitude': '-1.149941'}		Force	2018-07		
289	anti-social-behaviour		66576552	{'latitude': '52.630684', 'street': {'id': 883373, 'name': 'On or near Dunkirk Street'}, 'longitude': '-1.128659'}		Force	2018-07		
290	anti-social-behaviour		66576553	{'latitude': '52.642971', 'street': {'id': 884359, 'name': 'On or near Theatre/concert Hall'}, 'longitude': '-1.134489'}		Force	2018-07		
291	anti-social-behaviour		66576554	{'latitude': '52.636250', 'street': {'id': 883415, 'name': 'On or near Shopping Area'}, 'longitude': '-1.133691'}		Force	2018-07		
292	anti-social-behaviour		66576565	{'latitude': '52.639335', 'street': {'id': 883362, 'name': 'On or near Gravel Street'}, 'longitude': '-1.133940'}		Force	2018-07		
293	anti-social-behaviour		66573982	{'latitude': '52.636790', 'street': {'id': 883288, 'name': 'On or near Haymarket'}, 'longitude': '-1.131360'}		Force	2018-07		
294	anti-social-behaviour		66581663	{'latitude': '52.631975', 'street': {'id': 883320, 'name': 'On or near Welford Place'}, 'longitude': '-1.133096'}		Force	2018-07		
295	anti-social-behaviour		66581662	{'latitude': '52.617939', 'street': {'id': 882393, 'name': 'On or near Edward Road'}, 'longitude': '-1.118129'}		Force	2018-07		
296	anti-social-behaviour		66581661	"{'latitude': '52.636532', 'street': {'id': 1319944, 'name': ""On or near St George's Retail Park""}, 'longitude': '-1.120711'}"		Force	2018-07		
297	anti-social-behaviour		66581660	{'latitude': '52.637077', 'street': {'id': 883298, 'name': 'On or near Parking Area'}, 'longitude': '-1.131221'}		Force	2018-07		
298	anti-social-behaviour		66573984	{'latitude': '52.627729', 'street': {'id': 883058, 'name': 'On or near Churchill Street'}, 'longitude': '-1.116884'}		Force	2018-07		
299	anti-social-behaviour		66581658	{'latitude': '52.628893', 'street': {'id': 883128, 'name': 'On or near Lonsdale Street'}, 'longitude': '-1.111379'}		Force	2018-07		
300	bicycle-theft		66580341	{'latitude': '52.629909', 'street': {'id': 883345, 'name': 'On or near Marquis Street'}, 'longitude': '-1.132073'}		Force	2018-07	{'category': 'Investigation complete; no suspect identified', 'date': '2018-07'}	a8f00dd42a7c5af8a1868ee34263e6d5092d3b269dbc3f6afce0dba6b6684b27
301	bicycle-theft		66581786	{'latitude': '52.631611', 'street': {'id': 883264, 'name': 'On or near Slate Street'}, 'longitude': '-1.122612'}		Force	2018-07	{'category': 'Under investigation', 'date': '2018-07'}	55d93300d95ae7d7579e1e703197a3347c76468b15985c5d6579b14fab496b49
302	bicycle-theft		66577612	{'latitude': '52.636250', 'street': {'id': 883415, 'name': 'On or near Shopping Area'}, 'longitude': '-1.133691'}		Force	2018-07	{'category': 'Investigation complete; no suspect identified', 'date': '2018-07'}	085ac03417e2a02a7d2031bbb03f7f677fbfaf353a296dce680e8edda90f8e0e
303	bicycle-theft		66578753	{'latitude': '52.634474', 'street': {'id': 883498, 'name': 'On or near Kate Street'}, 'longitude': '-1.149197'}		Force	2018-07	{'category': 'Investigation complete; no suspect identified', 'date': '2018-07'}	1fd702fa38b46b9386284216e9a801357a35b8733afa9e5f78a0a798bb053320
304	bicycle-theft		66578738	{'latitude': '52.634824', 'street': {'id': 883427, 'name': 'On or near Janet Setchfield Place'}, 'longitude': '-1.139112'}		Force	2018-07	{'category': 'Investigation complete; no suspect identified', 'date': '2018-07'}	5ddf0c636cf0c6a315f963e5f6aef0b966131d351ef08d2e3e7d7bc0c7c3ab67
305	bicycle-theft		66578725	{'latitude': '52.624424', 'street': {'id': 882275, 'name': 'On or near Stuart Street'}, 'longitude': '-1.150485'}		Force	2018-07	{'category': 'Investigation complete; no suspect identified', 'date': '2018-07'}	7557dd8c4e1b5fc3b73f4dcaab9f6138f7a3636234a456f021b3a1b35908d482
306	bicycle-theft		66576384	{'latitude': '52.620842', 'street': {'id': 876361, 'name': 'On or near Counting House Road'}, 'longitude': '-1.131306'}		Force	2018-07	{'category': 'Investigation complete; no suspect identified', 'date': '2018-07'}	1c38e7215bd2cbead7e368cdc3b8f16f79b98f5d92849352f4a18869d86c3487
307	bicycle-theft		66577931	{'latitude': '52.635767', 'street': {'id': 883291, 'name': 'On or near High Street'}, 'longitude': '-1.135267'}		Force	2018-07	{'category': 'Investigation complete; no suspect identified', 'date': '2018-07'}	f709a4b0d37eff64d9264e9464f43021f9a00dc62138e75924114be0c0bff1e8
308	bicycle-theft		66579978	{'latitude': '52.632574', 'street': {'id': 883516, 'name': 'On or near Corah Street'}, 'longitude': '-1.143767'}		Force	2018-07	{'category': 'Investigation complete; no suspect identified', 'date': '2018-07'}	896ecedae329710d3988f48bca7a4cccd72a0614554510d912b57f90a5e7c896
309	bicycle-theft		66581117	{'latitude': '52.624562', 'street': {'id': 882300, 'name': 'On or near Petrol Station'}, 'longitude': '-1.152151'}		Force	2018-07	{'category': 'Investigation complete; no suspect identified', 'date': '2018-07'}	aa55f76cf0109e68f00eee2482142f45294cf1d9831f759d4d2a9e7dfa10ccbb
310	bicycle-theft		66578663	{'latitude': '52.631091', 'street': {'id': 883421, 'name': 'On or near The Newarke'}, 'longitude': '-1.142554'}		Force	2018-07	{'category': 'Investigation complete; no suspect identified', 'date': '2018-07'}	f26a14fe8449483bcc01b71d9642229806847afc6bcef996a59dbee527160d17
311	bicycle-theft		66576699	{'latitude': '52.641646', 'street': {'id': 884340, 'name': 'On or near Yarmouth Street'}, 'longitude': '-1.131486'}		Force	2018-07	{'category': 'Under investigation', 'date': '2018-07'}	f2402b18b197d900abb30f5e9928975da74a1fba5ec1fea2d66c0a20b6eb638e
312	bicycle-theft		66574244	{'latitude': '52.636536', 'street': {'id': 883356, 'name': 'On or near Humberstone Gate'}, 'longitude': '-1.128602'}		Force	2018-07	{'category': 'Investigation complete; no suspect identified', 'date': '2018-07'}	0ca2d6813ef37bfbf80853f1cde393118f1b6a44a6aaf450a9e181b17f0fcfd7
313	bicycle-theft		66578529	{'latitude': '52.633265', 'street': {'id': 883277, 'name': 'On or near Fox Street'}, 'longitude': '-1.125106'}		Force	2018-07	{'category': 'Investigation complete; no suspect identified', 'date': '2018-07'}	c88abe63a2d0168cc4b32659304a32331092c73fa3529e0ae1ab72f830b79a12
314	bicycle-theft		66581067	{'latitude': '52.627058', 'street': {'id': 882207, 'name': 'On or near Beaconsfield Road'}, 'longitude': '-1.154260'}		Force	2018-07	{'category': 'Investigation complete; no suspect identified', 'date': '2018-07'}	43dbfceb9279ad193410faa6c48663c1214197a4fd40c4641819acbeec96414a
315	bicycle-theft		66577946	{'latitude': '52.637354', 'street': {'id': 883414, 'name': 'On or near Shopping Area'}, 'longitude': '-1.138383'}		Force	2018-07	{'category': 'Under investigation', 'date': '2018-07'}	57481bf656a2b048cf414539a58d1fb8c7a7829302f8e94e4571592f36a7e702
316	bicycle-theft		66575882	{'latitude': '52.633265', 'street': {'id': 883277, 'name': 'On or near Fox Street'}, 'longitude': '-1.125106'}		Force	2018-07	{'category': 'Investigation complete; no suspect identified', 'date': '2018-07'}	8c5f2fc0a6f1f9539387a0c09ba9eea5975fb473ab1192076bc1806014c9f932
317	bicycle-theft		66577297	{'latitude': '52.633201', 'street': {'id': 883506, 'name': 'On or near Fosse Road Central'}, 'longitude': '-1.152132'}		Force	2018-07	{'category': 'Investigation complete; no suspect identified', 'date': '2018-07'}	6ba84921776912a12fadf79ce6405bda6bf7e6089aea49d95fba8c37bfb8fb35
318	bicycle-theft		66577305	{'latitude': '52.639335', 'street': {'id': 883362, 'name': 'On or near Gravel Street'}, 'longitude': '-1.133940'}		Force	2018-07	{'category': 'Investigation complete; no suspect identified', 'date': '2018-07'}	e0f65c2507809d5f279613f95f037c1c4166b0bf7139f9c67833f13a6fe0594f
319	bicycle-theft		66575998	{'latitude': '52.621287', 'street': {'id': 882350, 'name': 'On or near Sports/recreation Area'}, 'longitude': '-1.136881'}		Force	2018-07	{'category': 'Investigation complete; no suspect identified', 'date': '2018-07'}	eee5a656cc1bb978705e6d92d5c50462cd83380cf773f6ec0e4b88806d3760ad
320	bicycle-theft		66580826	{'latitude': '52.630438', 'street': {'id': 883353, 'name': 'On or near King Street'}, 'longitude': '-1.131914'}		Force	2018-07	{'category': 'Investigation complete; no suspect identified', 'date': '2018-07'}	d2cc8eee6bc1c7c0974a770cec2c4c6fa03f4ae130fef87f596fea0a14e3de2b
321	bicycle-theft		66576510	{'latitude': '52.633347', 'street': {'id': 883387, 'name': 'On or near Berridge Street'}, 'longitude': '-1.135034'}		Force	2018-07	{'category': 'Investigation complete; no suspect identified', 'date': '2018-07'}	883ef8f0bb09aec8083db4fa4cdb8f8d0e99de4663f43f9377cca8e7adc2d33e
322	bicycle-theft		66575315	{'latitude': '52.631373', 'street': {'id': 883503, 'name': 'On or near Foxon Street'}, 'longitude': '-1.145474'}		Force	2018-07	{'category': 'Investigation complete; no suspect identified', 'date': '2018-07'}	56106d3df0e60e394d71f7e87370dc497cebf2a1f127514ec4fd0b5812fad380
323	bicycle-theft		66573801	{'latitude': '52.636250', 'street': {'id': 883415, 'name': 'On or near Shopping Area'}, 'longitude': '-1.133691'}		Force	2018-07	{'category': 'Investigation complete; no suspect identified', 'date': '2018-07'}	c4b5a0ca1278f17e6f177855e3c9fb51c3d70a51ca990a02137abf49f68dbbb4
324	bicycle-theft		66575381	{'latitude': '52.630546', 'street': {'id': 883338, 'name': 'On or near Norton Street'}, 'longitude': '-1.134261'}		Force	2018-07	{'category': 'Investigation complete; no suspect identified', 'date': '2018-07'}	87ac4038c3dcb4ee6b18fb83560a6002d7bec9ed3a77e58c130769674f41acd8
325	bicycle-theft		66575360	{'latitude': '52.625591', 'street': {'id': 882272, 'name': 'On or near Upperton Road'}, 'longitude': '-1.142839'}		Force	2018-07	{'category': 'Investigation complete; no suspect identified', 'date': '2018-07'}	257fa948c77b89cdfe7ea4e3a8627d87b89f9743558be067495b88a9882104c7
326	bicycle-theft		66576496	{'latitude': '52.631438', 'street': {'id': 883301, 'name': 'On or near Parking Area'}, 'longitude': '-1.134658'}		Force	2018-07	{'category': 'Investigation complete; no suspect identified', 'date': '2018-07'}	dae6c56cb44fac9b1e03bb9d95d79643e970a785f768cf6354055ffe11f1fcec
327	bicycle-theft		66575355	{'latitude': '52.636721', 'street': {'id': 883359, 'name': 'On or near Haymarket'}, 'longitude': '-1.132898'}		Force	2018-07	{'category': 'Investigation complete; no suspect identified', 'date': '2018-07'}	093160fd1c4420a6e7a63b67a0a42b2593f78f108331a063f3086dc1ee27de08
328	bicycle-theft		66575335	{'latitude': '52.624815', 'street': {'id': 882318, 'name': 'On or near Buttermere Street'}, 'longitude': '-1.141081'}		Force	2018-07	{'category': 'Investigation complete; no suspect identified', 'date': '2018-07'}	e391cecabc73d28eeda91f27ae87a8acc97c814ed71fffeab52847777232327a
329	bicycle-theft		66578157	{'latitude': '52.635062', 'street': {'id': 883289, 'name': 'On or near Gallowtree Gate'}, 'longitude': '-1.132222'}		Force	2018-07	{'category': 'Investigation complete; no suspect identified', 'date': '2018-07'}	1d8e2f83d8f2eb7be4a247c4c2dbe3d115ae9f59029a2cac815c52d39b72ddee
330	bicycle-theft		66575665	{'latitude': '52.636145', 'street': {'id': 883282, 'name': 'On or near Burton Street'}, 'longitude': '-1.124324'}		Force	2018-07	{'category': 'Investigation complete; no suspect identified', 'date': '2018-07'}	3efc39f3835054e942a4dbd17737977b9a2ebead7517179f649ed8d6fc6e1560
331	bicycle-theft		66574970	{'latitude': '52.636536', 'street': {'id': 883356, 'name': 'On or near Humberstone Gate'}, 'longitude': '-1.128602'}		Force	2018-07	{'category': 'Investigation complete; no suspect identified', 'date': '2018-07'}	f34fe8197aacd5e66150c037d9c431dfc2a4137958a7eb904955c3f4294d8e7a
332	bicycle-theft		66575964	{'latitude': '52.626489', 'street': {'id': 882334, 'name': 'On or near Lower Hastings Street'}, 'longitude': '-1.129097'}		Force	2018-07	{'category': 'Investigation complete; no suspect identified', 'date': '2018-07'}	3ed7f5e87d8f54ae59eb656fb31eed8ea0eaf7b0155a5a9653ad6f03a62f08f9
333	bicycle-theft		66578219	{'latitude': '52.629543', 'street': {'id': 883270, 'name': 'On or near Nelson Street'}, 'longitude': '-1.125032'}		Force	2018-07	{'category': 'Investigation complete; no suspect identified', 'date': '2018-07'}	27748425d639a966c0b16d2cb52d8b0304f026a83a97646d48d9eabdb0d75515
334	bicycle-theft		66575872	{'latitude': '52.636250', 'street': {'id': 883415, 'name': 'On or near Shopping Area'}, 'longitude': '-1.133691'}		Force	2018-07	{'category': 'Investigation complete; no suspect identified', 'date': '2018-07'}	37e816814a58f12f960d80b5ecd66631c49a1c27488eee6c06f281eca1659283
335	bicycle-theft		67036614	{'latitude': '52.631569', 'street': {'id': 1489803, 'name': 'Leicester (station)'}, 'longitude': '-1.124283'}	STATION	BTP	2018-07	{'category': 'Under investigation', 'date': '2018-07'}	
336	bicycle-theft		66574119	{'latitude': '52.633418', 'street': {'id': 876792, 'name': 'On or near Daneshill Road'}, 'longitude': '-1.153635'}		Force	2018-07	{'category': 'Investigation complete; no suspect identified', 'date': '2018-07'}	9af20b05e8caa5002b672352ce90622784da0d5f6c5451bca6d34b1e2cbf6cd5
337	bicycle-theft		66573730	{'latitude': '52.636670', 'street': {'id': 883432, 'name': 'On or near Friars Causeway'}, 'longitude': '-1.140820'}		Force	2018-07	{'category': 'Investigation complete; no suspect identified', 'date': '2018-07'}	468e8cf395f562503813f2f3c40d43cec55138e0bad7ea4aea4242e19e88aa53
338	bicycle-theft		66576960	{'latitude': '52.632574', 'street': {'id': 883516, 'name': 'On or near Corah Street'}, 'longitude': '-1.143767'}		Force	2018-07	{'category': 'Under investigation', 'date': '2018-07'}	03dfc78e249f228886717ffcc70ba03777b56f19bdfb42eb2c2942b63c502ff3
339	bicycle-theft		66580045	{'latitude': '52.633145', 'street': {'id': 883365, 'name': 'On or near Granby Street'}, 'longitude': '-1.129511'}		Force	2018-07	{'category': 'Investigation complete; no suspect identified', 'date': '2018-07'}	1b09c630a3a4df9f68fd608e9c5083c9ca4f88c117250c118b3f9e0751d1fdbf
340	bicycle-theft		66574375	{'latitude': '52.633888', 'street': {'id': 883425, 'name': 'On or near Peacock Lane'}, 'longitude': '-1.138924'}		Force	2018-07	{'category': 'Investigation complete; no suspect identified', 'date': '2018-07'}	a51ce25b49665e26ffd1c8c5645d37b73371137cd347881fde0d39e498898c06
341	bicycle-theft		66578366	{'latitude': '52.635121', 'street': {'id': 883430, 'name': 'On or near High Street'}, 'longitude': '-1.139077'}		Force	2018-07	{'category': 'Investigation complete; no suspect identified', 'date': '2018-07'}	26f5c2be927e3e552f9ba0d9f165a7e2d17c06b2a3afa559e482c88250c4b6e9
342	bicycle-theft		66580736	{'latitude': '52.636536', 'street': {'id': 883356, 'name': 'On or near Humberstone Gate'}, 'longitude': '-1.128602'}		Force	2018-07	{'category': 'Awaiting court outcome', 'date': '2018-07'}	6306c021849be30082bf5124ef5c50543fa12d9e6a79e88b65ffe018eeade352
343	bicycle-theft		66573729	{'latitude': '52.626489', 'street': {'id': 882334, 'name': 'On or near Lower Hastings Street'}, 'longitude': '-1.129097'}		Force	2018-07	{'category': 'Investigation complete; no suspect identified', 'date': '2018-07'}	50b07a500c0fa05a8678b0de1417318ee47d89e261254e3f4052449ea5869784
344	bicycle-theft		66573728	{'latitude': '52.639736', 'street': {'id': 883035, 'name': 'On or near Arnold Street'}, 'longitude': '-1.120026'}		Force	2018-07	{'category': 'Investigation complete; no suspect identified', 'date': '2018-07'}	9ff651e9db83ad092d82cc7652b7dc9a47fc655c48ddf9fa8b803a261d6f02eb
345	bicycle-theft		66574344	{'latitude': '52.633161', 'street': {'id': 883433, 'name': 'On or near Castle Street'}, 'longitude': '-1.140416'}		Force	2018-07	{'category': 'Investigation complete; no suspect identified', 'date': '2018-07'}	563bd21fe21ff6527f3519daa99d15f9f5f7d8d78d0f3300906093c7233404bd
346	bicycle-theft		66573570	{'latitude': '52.623861', 'street': {'id': 882426, 'name': 'On or near Ripon Street'}, 'longitude': '-1.112973'}		Force	2018-07	{'category': 'Unable to prosecute suspect', 'date': '2018-07'}	c35247f98542da4e6ec0e868fc61bda06e85a6aac0ead97c2911a0d884e53930
347	bicycle-theft		66575045	{'latitude': '52.626548', 'street': {'id': 882320, 'name': 'On or near Leicester Royal Infirmiry'}, 'longitude': '-1.134680'}		Force	2018-07	{'category': 'Investigation complete; no suspect identified', 'date': '2018-07'}	0c99b65d68c49afda616cf158cbbf099336bade7c1902a55f4039cb02f2ab31d
348	bicycle-theft		66576741	{'latitude': '52.637712', 'street': {'id': 883292, 'name': 'On or near Haymarket Bus Station'}, 'longitude': '-1.130751'}		Force	2018-07	{'category': 'Investigation complete; no suspect identified', 'date': '2018-07'}	f9749352154d01ed23dedf89cf4cf8a5dca7c11e63be21253b0cf714f1c5cb1c
349	bicycle-theft		66574709	{'latitude': '52.636536', 'street': {'id': 883356, 'name': 'On or near Humberstone Gate'}, 'longitude': '-1.128602'}		Force	2018-07	{'category': 'Investigation complete; no suspect identified', 'date': '2018-07'}	38a3745d305b266f5e4e6c4c5c857a2a7ae4797ead1e87174183a656048f9a60
350	bicycle-theft		66573539	{'latitude': '52.637354', 'street': {'id': 883414, 'name': 'On or near Shopping Area'}, 'longitude': '-1.138383'}		Force	2018-07	{'category': 'Investigation complete; no suspect identified', 'date': '2018-07'}	afa9888a6bc5ba10d92d6e504c88e24574f1dd746478234b8fdf27c0d7eacf02
351	bicycle-theft		66573538	{'latitude': '52.639814', 'street': {'id': 883235, 'name': 'On or near Sanvey Gate'}, 'longitude': '-1.139118'}		Force	2018-07	{'category': 'Investigation complete; no suspect identified', 'date': '2018-07'}	cb060a25f1abed7be957445f0c7520e34977691d1883836b46548ed9c45c2d6c
352	bicycle-theft		66573505	{'latitude': '52.625976', 'street': {'id': 882271, 'name': 'On or near Upperton Road'}, 'longitude': '-1.151252'}		Force	2018-07	{'category': 'Investigation complete; no suspect identified', 'date': '2018-07'}	23b1b0414521efcde4d84c01bba05e154ce1d61cbf568420dd22065160c5c0e8
353	bicycle-theft		66573458	{'latitude': '52.632883', 'street': {'id': 883538, 'name': 'On or near Stretton Road'}, 'longitude': '-1.154148'}		Force	2018-07	{'category': 'Investigation complete; no suspect identified', 'date': '2018-07'}	4eab1923cf6d146a59d1d909d3a53d04bae2b81c70726b62795e61dcdbb320d3
354	bicycle-theft		66577358	{'latitude': '52.626534', 'street': {'id': 882277, 'name': 'On or near Sage Road'}, 'longitude': '-1.145096'}		Force	2018-07	{'category': 'Investigation complete; no suspect identified', 'date': '2018-07'}	cd710f4a771a3cfbbf47933ffc26ded051950b67dc3b8c45043ad58d14b09109
355	bicycle-theft		66577069	{'latitude': '52.636110', 'street': {'id': 883290, 'name': 'On or near Humberstone Gate'}, 'longitude': '-1.131802'}		Force	2018-07	{'category': 'Under investigation', 'date': '2018-07'}	ef41340c8e0372e24a725160cc00dc92f82debe385e5d740bc86b93ea1e77dab
356	bicycle-theft		66576970	{'latitude': '52.636721', 'street': {'id': 883359, 'name': 'On or near Haymarket'}, 'longitude': '-1.132898'}		Force	2018-07	{'category': 'Investigation complete; no suspect identified', 'date': '2018-07'}	7d2919739a4c3d3f6776585d29ae2290d5e0065d5d68dcef841ed0e9a821ca83
357	bicycle-theft		66576972	{'latitude': '52.636250', 'street': {'id': 883415, 'name': 'On or near Shopping Area'}, 'longitude': '-1.133691'}		Force	2018-07	{'category': 'Investigation complete; no suspect identified', 'date': '2018-07'}	e835dda0c63ca98bc36881ad9f29163f447712ed0b75936026760c6c879fe349
358	bicycle-theft		66581617	{'latitude': '52.633414', 'street': {'id': 883262, 'name': 'On or near Swain Street'}, 'longitude': '-1.123359'}		Force	2018-07	{'category': 'Investigation complete; no suspect identified', 'date': '2018-07'}	b8f233c898f52d5fa7016651f236beb0796ebbbef25a5a2fbae74ab224f14adf
359	bicycle-theft		67036613	{'latitude': '52.631569', 'street': {'id': 1489803, 'name': 'Leicester (station)'}, 'longitude': '-1.124283'}	STATION	BTP	2018-07	{'category': 'Under investigation', 'date': '2018-07'}	
360	bicycle-theft		66575764	{'latitude': '52.633007', 'street': {'id': 883386, 'name': 'On or near Bowling Green Street'}, 'longitude': '-1.132839'}		Force	2018-07	{'category': 'Under investigation', 'date': '2018-07'}	608f2e5c96cff463ec2c71885dc3d4e7b0d8c45f83ed8d51e26b260297714d03
361	bicycle-theft		66574711	{'latitude': '52.641646', 'street': {'id': 884340, 'name': 'On or near Yarmouth Street'}, 'longitude': '-1.131486'}		Force	2018-07	{'category': 'Investigation complete; no suspect identified', 'date': '2018-07'}	4943477ce2bbf4324fae9b49b5ac1aad0b76ff7662aedf98243d0b33faf48e92
362	bicycle-theft		66574106	{'latitude': '52.636110', 'street': {'id': 883290, 'name': 'On or near Humberstone Gate'}, 'longitude': '-1.131802'}		Force	2018-07	{'category': 'Investigation complete; no suspect identified', 'date': '2018-07'}	9b1352243dfd1292823045cafdd82f15910394e3b722dab057aeffab1518532f
363	bicycle-theft		66575443	{'latitude': '52.637712', 'street': {'id': 883292, 'name': 'On or near Haymarket Bus Station'}, 'longitude': '-1.130751'}		Force	2018-07	{'category': 'Under investigation', 'date': '2018-07'}	d71d6f62b0ab30b3b566367ae303afca4f48c3de74ebbf847a80e047e940833e
364	bicycle-theft		66575444	{'latitude': '52.633540', 'street': {'id': 883379, 'name': 'On or near Church Street'}, 'longitude': '-1.126977'}		Force	2018-07	{'category': 'Under investigation', 'date': '2018-07'}	d9453d593bf2d0e5782256f629587379dfd09575ae5fc7b5e0e794086f01bb29
365	bicycle-theft		66575925	{'latitude': '52.631805', 'street': {'id': 883434, 'name': 'On or near Further/higher Educational Building'}, 'longitude': '-1.139364'}		Force	2018-07	{'category': 'Investigation complete; no suspect identified', 'date': '2018-07'}	a5686b2e87ad041bf76720cd38ff8a68119749384fc8c16c196abae9357232e1
366	bicycle-theft		66582080	{'latitude': '52.638565', 'street': {'id': 883230, 'name': 'On or near Alberta Street'}, 'longitude': '-1.119636'}		Force	2018-07	{'category': 'Under investigation', 'date': '2018-07'}	f441f1894b6173e8058ac6666f49a80d3e2432a93f1c9a72ba9d315eadd10257
367	bicycle-theft		66575058	{'latitude': '52.629909', 'street': {'id': 883345, 'name': 'On or near Marquis Street'}, 'longitude': '-1.132073'}		Force	2018-07	{'category': 'Investigation complete; no suspect identified', 'date': '2018-07'}	8a30052eea32b7255ed79e26f5c0d79eefe1fb3d20815b2ff3f357144dd00d16
368	bicycle-theft		66580033	{'latitude': '52.634407', 'street': {'id': 883407, 'name': 'On or near Shopping Area'}, 'longitude': '-1.133653'}		Force	2018-07	{'category': 'Investigation complete; no suspect identified', 'date': '2018-07'}	7b78e0501efc62f6bfc4dd1e2391bab9af353c1483416523b5588a6bb541da62
369	bicycle-theft		66580016	{'latitude': '52.632897', 'street': {'id': 883435, 'name': 'On or near Northampton Street'}, 'longitude': '-1.127640'}		Force	2018-07	{'category': 'Investigation complete; no suspect identified', 'date': '2018-07'}	c535bdc438231dddcacb46b9aeffccc637e68ed2a438a64e63a4c25034af926f
370	bicycle-theft		66577905	{'latitude': '52.635184', 'street': {'id': 883410, 'name': 'On or near Shopping Area'}, 'longitude': '-1.135455'}		Force	2018-07	{'category': 'Under investigation', 'date': '2018-07'}	c4ad6ec3330f39481bec7a423429cbe7b9fc0e25f14db674051a37a2155af1cf
371	bicycle-theft		66580554	{'latitude': '52.632469', 'street': {'id': 883334, 'name': 'On or near Pocklingtons Walk'}, 'longitude': '-1.134164'}		Force	2018-07	{'category': 'Investigation complete; no suspect identified', 'date': '2018-07'}	0870371bc9c2ae6b979ed589ab84796a242519477848e5ec009300dfb443ea82
372	bicycle-theft		66577201	{'latitude': '52.636536', 'street': {'id': 883356, 'name': 'On or near Humberstone Gate'}, 'longitude': '-1.128602'}		Force	2018-07	{'category': 'Awaiting court outcome', 'date': '2018-07'}	ad45322350e2a8f250996ad4118e15f40bdaa5eb3e51df5d49d91e5eefa33d80
373	bicycle-theft		66576277	{'latitude': '52.627542', 'street': {'id': 883245, 'name': 'On or near West Street'}, 'longitude': '-1.129268'}		Force	2018-07	{'category': 'Unable to prosecute suspect', 'date': '2018-07'}	28547ad6f7cdda4ef1946b662dbb31333917e5e2e08cd668e93f0da770dc7762
374	bicycle-theft		66576137	{'latitude': '52.630069', 'street': {'id': 883344, 'name': 'On or near Mill Street'}, 'longitude': '-1.133045'}		Force	2018-07	{'category': 'Under investigation', 'date': '2018-07'}	d47ac615dc731061b6a4e3148abb76cb2a936ef19133d512441fcc4b38ef7a3f
375	bicycle-theft		66574303	{'latitude': '52.628800', 'street': {'id': 883375, 'name': 'On or near Deacon Street'}, 'longitude': '-1.137738'}		Force	2018-07	{'category': 'Investigation complete; no suspect identified', 'date': '2018-07'}	5537fe02540921596c9caca7b7f53a4fe8a25c593339e42c65d739c6e8d770b3
376	bicycle-theft		66580001	{'latitude': '52.633007', 'street': {'id': 883386, 'name': 'On or near Bowling Green Street'}, 'longitude': '-1.132839'}		Force	2018-07	{'category': 'Investigation complete; no suspect identified', 'date': '2018-07'}	424db2df93e9ee10efe042187631ce013fc0f51dd638729a6668997608e45fec
377	bicycle-theft		66575076	{'latitude': '52.639335', 'street': {'id': 883362, 'name': 'On or near Gravel Street'}, 'longitude': '-1.133940'}		Force	2018-07	{'category': 'Investigation complete; no suspect identified', 'date': '2018-07'}	1ca555e0ef6368997ef9327921e52455276022dc1bbae5ef9cb48a9ca692e6a4
378	bicycle-theft		66580549	{'latitude': '52.639559', 'street': {'id': 883297, 'name': 'On or near Pedestrian Subway'}, 'longitude': '-1.136271'}		Force	2018-07	{'category': 'Investigation complete; no suspect identified', 'date': '2018-07'}	2786e39d48a286a1b7b0bf391c266e5e7a0b47f0945caa871caf2253ef28f468
379	bicycle-theft		66574206	{'latitude': '52.636790', 'street': {'id': 883288, 'name': 'On or near Haymarket'}, 'longitude': '-1.131360'}		Force	2018-07	{'category': 'Investigation complete; no suspect identified', 'date': '2018-07'}	a230e033c936e9c553145030b867b563f057c55a0f195e4af3a29671fa3b1e64
380	bicycle-theft		66579991	{'latitude': '52.636256', 'street': {'id': 883316, 'name': 'On or near Wimbledon Street'}, 'longitude': '-1.125933'}		Force	2018-07	{'category': 'Investigation complete; no suspect identified', 'date': '2018-07'}	fbec00ea3856219dfc5968772c68e55db793a708343ed85060a045d00691b260
381	bicycle-theft		66578930	{'latitude': '52.631166', 'street': {'id': 883520, 'name': 'On or near Braunstone Gate'}, 'longitude': '-1.145493'}		Force	2018-07	{'category': 'Investigation complete; no suspect identified', 'date': '2018-07'}	f5d6eefa982ec6c568a20df3413434f0cce5740b12267c732bcbbb1c85a1526a
382	bicycle-theft		66577700	{'latitude': '52.637432', 'street': {'id': 883333, 'name': 'On or near Potter Street'}, 'longitude': '-1.126885'}		Force	2018-07	{'category': 'Under investigation', 'date': '2018-07'}	ba19be7c24467eb2ab09a11d24e3754eb84dda9c7dbe9bb769c9471d64fd9c82
383	bicycle-theft		66581101	{'latitude': '52.627107', 'street': {'id': 882211, 'name': 'On or near Coriander Road'}, 'longitude': '-1.144819'}		Force	2018-07	{'category': 'Under investigation', 'date': '2018-07'}	ca012d29bb2c691d4eb3393c8b6e1e5119e73ce194e65faa064c6c73c96dff8e
384	burglary		66577994	{'latitude': '52.639559', 'street': {'id': 883297, 'name': 'On or near Pedestrian Subway'}, 'longitude': '-1.136271'}		Force	2018-07	{'category': 'Under investigation', 'date': '2018-07'}	f7edda292c0567ec697051363554c0d3d369a2e44dce56a5447b805c48e5e60e
385	burglary		66576243	{'latitude': '52.630054', 'street': {'id': 883351, 'name': 'On or near Lower Brown Street'}, 'longitude': '-1.134685'}		Force	2018-07	{'category': 'Investigation complete; no suspect identified', 'date': '2018-07'}	8c3f6d4e32747967da9b34e14da4443f241708ce5e78a1fad58842a50c95a768
386	burglary		66580061	{'latitude': '52.626548', 'street': {'id': 882320, 'name': 'On or near Leicester Royal Infirmiry'}, 'longitude': '-1.134680'}		Force	2018-07	{'category': 'Investigation complete; no suspect identified', 'date': '2018-07'}	e1d8f5b8df7377b366830f4eecc8fba7eacfc0ee7c637befae128c281c28b00c
387	burglary		66577719	{'latitude': '52.628499', 'street': {'id': 883248, 'name': 'On or near Trinity Lane'}, 'longitude': '-1.132174'}		Force	2018-07	{'category': 'Investigation complete; no suspect identified', 'date': '2018-07'}	ea28ae3824ace31cd79f3e3b7cf5afac1ad6e5a28d69c48b90b688d0d3b10a09
388	burglary		66575098	{'latitude': '52.631679', 'street': {'id': 883519, 'name': 'On or near Catesby Street'}, 'longitude': '-1.150448'}		Force	2018-07	{'category': 'Investigation complete; no suspect identified', 'date': '2018-07'}	6de1e6ac2817466992cb0ce7b2393ea54d8bd25c650380d472ce43dbb7f02aa0
389	burglary		66581338	{'latitude': '52.630016', 'street': {'id': 883514, 'name': 'On or near Cranmer Street'}, 'longitude': '-1.149209'}		Force	2018-07	{'category': 'Investigation complete; no suspect identified', 'date': '2018-07'}	fd5c90f62466a725f624f10c9c6b834d5a2b4ef6ad879e0437841145be8958af
390	burglary		66575916	{'latitude': '52.626210', 'street': {'id': 882445, 'name': 'On or near Linton Street'}, 'longitude': '-1.108464'}		Force	2018-07	{'category': 'Formal action is not in the public interest', 'date': '2018-07'}	51a844b7a881b92bedd4335f64b3b5a42930a139637192abe35f6b76724b86e0
391	burglary		66581480	{'latitude': '52.627627', 'street': {'id': 883455, 'name': 'On or near Gaul Street'}, 'longitude': '-1.148325'}		Force	2018-07	{'category': 'Under investigation', 'date': '2018-07'}	fe77085cd7f55a9635628b77e0ab966c0502e99fd44fe1cb3dc514a3cd22210e
392	burglary		66581590	{'latitude': '52.635488', 'street': {'id': 883480, 'name': 'On or near Rivers Street'}, 'longitude': '-1.147640'}		Force	2018-07	{'category': 'Investigation complete; no suspect identified', 'date': '2018-07'}	b116a9900e636c64e9956820ad14c335cbb0f59bf2ad8c9a107d44ff636a8398
393	burglary		66574318	{'latitude': '52.639768', 'street': {'id': 883239, 'name': 'On or near Parking Area'}, 'longitude': '-1.131597'}		Force	2018-07	{'category': 'Investigation complete; no suspect identified', 'date': '2018-07'}	24d6c3575fdf3823237c05a6f24b69683a6e73cd2379c4b74b60f50560401c63
394	burglary		66576057	{'latitude': '52.636536', 'street': {'id': 883356, 'name': 'On or near Humberstone Gate'}, 'longitude': '-1.128602'}		Force	2018-07	{'category': 'Under investigation', 'date': '2018-07'}	845f3b0bbb81e64e8d5d75873b3c2c99ac943d9a0303371a3a8ccc697f92fd15
395	burglary		66578501	{'latitude': '52.630438', 'street': {'id': 883353, 'name': 'On or near King Street'}, 'longitude': '-1.131914'}		Force	2018-07	{'category': 'Under investigation', 'date': '2018-07'}	fbc4b31377e3fd3d293efc22e99473b3d5add9faaab72f3d653d3ef1f975b195
396	burglary		66580346	{'latitude': '52.620511', 'street': {'id': 882304, 'name': 'On or near Great Central Way'}, 'longitude': '-1.148980'}		Force	2018-07	{'category': 'Investigation complete; no suspect identified', 'date': '2018-07'}	a3add9576c1df6efaeae244f6effc19fb1421777dcec13ff34d6399ab8b028d0
397	burglary		66581474	{'latitude': '52.628831', 'street': {'id': 883479, 'name': 'On or near Roman Street'}, 'longitude': '-1.148228'}		Force	2018-07	{'category': 'Under investigation', 'date': '2018-07'}	17d118b557feedb189af000102bf24f0d82aa20478f57cb1d2af572bf7cdbb99
398	burglary		66580665	{'latitude': '52.627979', 'street': {'id': 883199, 'name': 'On or near Victoria Avenue'}, 'longitude': '-1.120277'}		Force	2018-07	{'category': 'Under investigation', 'date': '2018-07'}	da7db098dbd117758f9bba9215e4db17420377e5b99ea96949eddf26577a2c64
399	burglary		66577722	{'latitude': '52.642703', 'street': {'id': 884351, 'name': 'On or near Gas Street'}, 'longitude': '-1.131051'}		Force	2018-07	{'category': 'Under investigation', 'date': '2018-07'}	ef68705a03334c445bdd6a7a90185191b9344d4762067c6b6cec236c540f718d
400	burglary		66580321	{'latitude': '52.622142', 'street': {'id': 882279, 'name': 'On or near Quainton Road'}, 'longitude': '-1.146969'}		Force	2018-07	{'category': 'Investigation complete; no suspect identified', 'date': '2018-07'}	c0bdec77ecaee8e90b4389279deb717b7bfec284f616ea7b3ed4341d3e642786
401	burglary		66573717	{'latitude': '52.632727', 'street': {'id': 883339, 'name': 'On or near Newport Place'}, 'longitude': '-1.127688'}		Force	2018-07	{'category': 'Investigation complete; no suspect identified', 'date': '2018-07'}	0f9aecd044ba9ff251621e87fb4e940edbb0e6ef795608109e66b36f00cb424f
402	burglary		66576374	{'latitude': '52.628685', 'street': {'id': 883131, 'name': 'On or near Laurel Road'}, 'longitude': '-1.109979'}		Force	2018-07	{'category': 'Investigation complete; no suspect identified', 'date': '2018-07'}	4ac242e67e7d4bd986ca661a145c3f795906be282259ce5d7991baf289426af8
403	burglary		66578840	{'latitude': '52.635598', 'street': {'id': 883314, 'name': 'On or near Yeoman Lane'}, 'longitude': '-1.129330'}		Force	2018-07	{'category': 'Awaiting court outcome', 'date': '2018-07'}	a571f0d1739077d433339a5831ab9e81b3535fb71ea34ef005096d0aab00768a
404	burglary		66575886	{'latitude': '52.631679', 'street': {'id': 883519, 'name': 'On or near Catesby Street'}, 'longitude': '-1.150448'}		Force	2018-07	{'category': 'Investigation complete; no suspect identified', 'date': '2018-07'}	a077d8c66e8764dcd2d06d6a4766c465685c73fd39f00443115fc015dce619bc
405	burglary		66579827	{'latitude': '52.637432', 'street': {'id': 883333, 'name': 'On or near Potter Street'}, 'longitude': '-1.126885'}		Force	2018-07	{'category': 'Under investigation', 'date': '2018-07'}	d1b78e3d6496c4366a1c5aa2506a03d123c2ac06c16e9d22cfa4d947ddb24694
406	burglary		66575036	{'latitude': '52.625944', 'street': {'id': 882313, 'name': 'On or near Windermere Street'}, 'longitude': '-1.140601'}		Force	2018-07	{'category': 'Investigation complete; no suspect identified', 'date': '2018-07'}	56e567c46a24b13ec1ee3f093f26b42eec826cd844f7554cb2c8e54971be0732
407	burglary		66577902	{'latitude': '52.630187', 'street': {'id': 883281, 'name': 'On or near College Street'}, 'longitude': '-1.120956'}		Force	2018-07	{'category': 'Investigation complete; no suspect identified', 'date': '2018-07'}	5089a2d8c56811a28ded48362946551c6bd1ad6f3ceb38321a759eb1d46df1d4
408	burglary		66573933	{'latitude': '52.634562', 'street': {'id': 883507, 'name': 'On or near Fosse Road Central'}, 'longitude': '-1.152623'}		Force	2018-07	{'category': 'Investigation complete; no suspect identified', 'date': '2018-07'}	3394339dda757cce8039127717a516d25af27fa2a86255dcdff541dff6a87006
409	burglary		66574993	"{'latitude': '52.636532', 'street': {'id': 1319944, 'name': ""On or near St George's Retail Park""}, 'longitude': '-1.120711'}"		Force	2018-07	{'category': 'Investigation complete; no suspect identified', 'date': '2018-07'}	6bf6f3bbcb36f55066cb67be416c8dce468f537d676903aeae29da9ab61adb22
410	burglary		66580158	{'latitude': '52.625944', 'street': {'id': 882313, 'name': 'On or near Windermere Street'}, 'longitude': '-1.140601'}		Force	2018-07	{'category': 'Under investigation', 'date': '2018-07'}	6eeb99521fc2ea8a32f1b5324f89c0ea3f05d794fb24cbb84fe7abec56f350bb
411	burglary		66582241	{'latitude': '52.626674', 'street': {'id': 882379, 'name': 'On or near Evington Road'}, 'longitude': '-1.116358'}		Force	2018-07	{'category': 'Investigation complete; no suspect identified', 'date': '2018-07'}	4f81148a1b39516f93cdb8e4540756107645d54081e2cb0024ec5184840e18bc
412	burglary		66575635	{'latitude': '52.637407', 'street': {'id': 883409, 'name': 'On or near Supermarket'}, 'longitude': '-1.133343'}		Force	2018-07	{'category': 'Investigation complete; no suspect identified', 'date': '2018-07'}	aba8cb9f32e359997cebabc037bda7cb01744d262fe18cc2655f4a41672f7b60
413	burglary		66575935	{'latitude': '52.632883', 'street': {'id': 883538, 'name': 'On or near Stretton Road'}, 'longitude': '-1.154148'}		Force	2018-07	{'category': 'Investigation complete; no suspect identified', 'date': '2018-07'}	fc32c9758ea7306062e65355847b2fd0b5f2e0e2809a141a74ebe54d50b28334
414	burglary		66581194	{'latitude': '52.636033', 'street': {'id': 883368, 'name': 'On or near Freeschool Lane'}, 'longitude': '-1.138424'}		Force	2018-07	{'category': 'Under investigation', 'date': '2018-07'}	c0f4c041b366f4a5053400d59be59e0cdc396a232e5beef4495c5a3460ce3ffb
415	burglary		66578278	{'latitude': '52.636256', 'street': {'id': 883316, 'name': 'On or near Wimbledon Street'}, 'longitude': '-1.125933'}		Force	2018-07	{'category': 'Investigation complete; no suspect identified', 'date': '2018-07'}	a5880eb99ac147914e1352ff6cb3e93dcc9fd0dfadf838d0f5745ac2cbcc2bec
416	burglary		66578457	{'latitude': '52.628800', 'street': {'id': 883375, 'name': 'On or near Deacon Street'}, 'longitude': '-1.137738'}		Force	2018-07	{'category': 'Under investigation', 'date': '2018-07'}	cf137b17a8c106e82452ef5e7747856ae51fbe68defd7a798a9152c35d6f1131
417	burglary		66576497	{'latitude': '52.637354', 'street': {'id': 883414, 'name': 'On or near Shopping Area'}, 'longitude': '-1.138383'}		Force	2018-07	{'category': 'Investigation complete; no suspect identified', 'date': '2018-07'}	e21565ff1c2c5796ee9d69a52e515669d796b74ea82768c6a42d1959cbdd5a16
418	burglary		66578702	{'latitude': '52.633347', 'street': {'id': 883387, 'name': 'On or near Berridge Street'}, 'longitude': '-1.135034'}		Force	2018-07	{'category': 'Investigation complete; no suspect identified', 'date': '2018-07'}	b7a1a9274960fd711fd6d0476d27b28d90ab96e2f453d5e83624adf5c33f9608
419	burglary		66580585	{'latitude': '52.627664', 'street': {'id': 883457, 'name': 'On or near Supermarket'}, 'longitude': '-1.149757'}		Force	2018-07	{'category': 'Under investigation', 'date': '2018-07'}	a37f8eba6eaa0032a4c3acb967d09317199006823bb596936617e99464e11384
420	burglary		66578676	{'latitude': '52.622705', 'street': {'id': 882287, 'name': 'On or near Helmdon Road'}, 'longitude': '-1.146515'}		Force	2018-07	{'category': 'Investigation complete; no suspect identified', 'date': '2018-07'}	31ca0219d9890eba4f247f88d2ca93b6981d49bf10dfdf5646d52c420a1930a8
421	burglary		66580359	{'latitude': '52.630675', 'street': {'id': 883319, 'name': 'On or near Wellington Street'}, 'longitude': '-1.129841'}		Force	2018-07	{'category': 'Under investigation', 'date': '2018-07'}	6f27844da05bd86a67c4d17fefdb3a6a53fc21e3f6e2dc2030ab926d56bc8959
422	burglary		66581777	{'latitude': '52.634474', 'street': {'id': 883498, 'name': 'On or near Kate Street'}, 'longitude': '-1.149197'}		Force	2018-07	{'category': 'Under investigation', 'date': '2018-07'}	46e97ada43ebc7e6a3d782bdf5ce0b3bc0ada805ece87bf0f7140bddcb47a1b6
423	burglary		66581130	{'latitude': '52.631887', 'street': {'id': 883391, 'name': 'On or near Albion Street'}, 'longitude': '-1.130778'}		Force	2018-07	{'category': 'Investigation complete; no suspect identified', 'date': '2018-07'}	52849e0632111460b34157fb6bf61345a09e63c79811f198103b3b67dafae8cf
424	burglary		66579319	{'latitude': '52.637366', 'street': {'id': 883286, 'name': 'On or near Bell Lane'}, 'longitude': '-1.121640'}		Force	2018-07	{'category': 'Under investigation', 'date': '2018-07'}	e4c6e2074c75e68139baf2b7b1b8b23baa7cd0ce0c82d4e26206fab65cfcedc4
425	burglary		66577966	{'latitude': '52.634049', 'street': {'id': 883378, 'name': 'On or near Colton Street'}, 'longitude': '-1.127765'}		Force	2018-07	{'category': 'Investigation complete; no suspect identified', 'date': '2018-07'}	23668e264b35d276e09079a40a0b398f7a912193448bc278780e0651ceaddcfa
426	burglary		66579601	{'latitude': '52.633680', 'street': {'id': 883402, 'name': 'On or near Supermarket'}, 'longitude': '-1.130225'}		Force	2018-07	{'category': 'Under investigation', 'date': '2018-07'}	4d3bbd00b60594587a490b1d6a3f9c6e011c3fdc829dc3bb1de98173acecb67a
427	burglary		66582181	{'latitude': '52.637674', 'street': {'id': 883469, 'name': 'On or near Tudor Road'}, 'longitude': '-1.147819'}		Force	2018-07	{'category': 'Investigation complete; no suspect identified', 'date': '2018-07'}	237e0780e1569a5dbe6e158a255953941ba9eb50a250177b19919953c21856b0
428	burglary		66581382	{'latitude': '52.634279', 'street': {'id': 883366, 'name': 'On or near Granby Place'}, 'longitude': '-1.130922'}		Force	2018-07	{'category': 'Investigation complete; no suspect identified', 'date': '2018-07'}	ca7960f2076103572116a39d47430972d5604e69e59b7c994c89605b706e9506
429	burglary		66575468	{'latitude': '52.633680', 'street': {'id': 883402, 'name': 'On or near Supermarket'}, 'longitude': '-1.130225'}		Force	2018-07	{'category': 'Under investigation', 'date': '2018-07'}	8162c2f1df625bbb395decc1a6700cd134ebf5ed8195984f177a5d7730060b25
430	burglary		66579617	{'latitude': '52.639138', 'street': {'id': 883355, 'name': 'On or near Junior Street'}, 'longitude': '-1.137683'}		Force	2018-07	{'category': 'Under investigation', 'date': '2018-07'}	c0198a52fa908a6b4f726c93cf75c71035ab35b99a9d183b24dd015971619ccc
431	burglary		66575030	{'latitude': '52.638452', 'street': {'id': 883307, 'name': 'On or near Parking Area'}, 'longitude': '-1.128697'}		Force	2018-07	{'category': 'Investigation complete; no suspect identified', 'date': '2018-07'}	666afa527ec32f06ba574d9c685cbfc1fb1a399637d79c99d1d794f0ccf2adbf
432	burglary		66579953	{'latitude': '52.617281', 'street': {'id': 882364, 'name': 'On or near Howard Road'}, 'longitude': '-1.121451'}		Force	2018-07	{'category': 'Investigation complete; no suspect identified', 'date': '2018-07'}	d5ef8b670f676fce09130e6cac9d46106eb04e88c860ca0e1989915f3d617dda
433	burglary		66573829	{'latitude': '52.632369', 'street': {'id': 883489, 'name': 'On or near Musgrove Close'}, 'longitude': '-1.150198'}		Force	2018-07	{'category': 'Investigation complete; no suspect identified', 'date': '2018-07'}	8ea71ebbd75f79b0bd0423314c5bfa1231a3fe1d5ae1f1a02d5f76f5e0a757fc
434	burglary		66579509	{'latitude': '52.630596', 'street': {'id': 883488, 'name': 'On or near Narborough Road'}, 'longitude': '-1.147381'}		Force	2018-07	{'category': 'Investigation complete; no suspect identified', 'date': '2018-07'}	279495823fc3546c826c33389dda8a701f01c72f3475119b923f8beb2c7c75b3
435	burglary		66581114	{'latitude': '52.627664', 'street': {'id': 883457, 'name': 'On or near Supermarket'}, 'longitude': '-1.149757'}		Force	2018-07	{'category': 'Investigation complete; no suspect identified', 'date': '2018-07'}	dd276281addfb8cdcaa0324763efc8b082a50a7127be07a174bff2b81a828862
436	burglary		66578129	{'latitude': '52.639559', 'street': {'id': 883297, 'name': 'On or near Pedestrian Subway'}, 'longitude': '-1.136271'}		Force	2018-07	{'category': 'Unable to prosecute suspect', 'date': '2018-07'}	ad03ac4055e880b9a6e0d79d9fa6818fb6667730695f4d01197d73068d74cee8
437	burglary		66578502	{'latitude': '52.630327', 'street': {'id': 883337, 'name': 'On or near Oxford Street'}, 'longitude': '-1.136349'}		Force	2018-07	{'category': 'Investigation complete; no suspect identified', 'date': '2018-07'}	dcdfc739bd92529bc360da86dd20a6a4c6e45c383d5c17a7355f64d2dcdad3f8
438	burglary		66579779	{'latitude': '52.627161', 'street': {'id': 882208, 'name': 'On or near Norman Street'}, 'longitude': '-1.148511'}		Force	2018-07	{'category': 'Investigation complete; no suspect identified', 'date': '2018-07'}	4f756fecf37c7a9c90f3b632c28e644674c9a0e008ffef428999194f825dbe32
439	burglary		66580864	{'latitude': '52.625591', 'street': {'id': 882272, 'name': 'On or near Upperton Road'}, 'longitude': '-1.142839'}		Force	2018-07	{'category': 'Under investigation', 'date': '2018-07'}	a50237da635861373d5de0209c659e72c8fbcfd4369f3b41e0281a30c891989b
440	burglary		66575647	{'latitude': '52.630438', 'street': {'id': 883353, 'name': 'On or near King Street'}, 'longitude': '-1.131914'}		Force	2018-07	{'category': 'Investigation complete; no suspect identified', 'date': '2018-07'}	af9af0e573faa9d03ed9108a56377fed48698ac9b382dc5904f83e5570d99e0e
441	burglary		66581347	{'latitude': '52.629797', 'street': {'id': 883332, 'name': 'On or near Princess Road Backways'}, 'longitude': '-1.130272'}		Force	2018-07	{'category': 'Under investigation', 'date': '2018-07'}	66e82a9ac735c6596bda2fe11ab4e58f60fdfaa8aec9ab065879c26350d3de30
442	burglary		66575649	{'latitude': '52.637407', 'street': {'id': 883409, 'name': 'On or near Supermarket'}, 'longitude': '-1.133343'}		Force	2018-07	{'category': 'Under investigation', 'date': '2018-07'}	d1956a62d31350bcb62e49c540ba3b202efeaf289500ab70ba7b979599850695
443	burglary		66577707	{'latitude': '52.622751', 'street': {'id': 882299, 'name': 'On or near Bisley Street'}, 'longitude': '-1.150355'}		Force	2018-07	{'category': 'Investigation complete; no suspect identified', 'date': '2018-07'}	3b45fb69f6ee5fd216cf086fe180c5f01bdffb6c5e77c1ffb5c8331656ea986c
444	burglary		66577990	{'latitude': '52.636362', 'street': {'id': 883137, 'name': 'On or near Hartington Road'}, 'longitude': '-1.111168'}		Force	2018-07	{'category': 'Investigation complete; no suspect identified', 'date': '2018-07'}	5f97ad56b714750e2cc43e1873b6266779362fcd6cccfe006f89ed6a993ed992
445	burglary		66581881	{'latitude': '52.630546', 'street': {'id': 883338, 'name': 'On or near Norton Street'}, 'longitude': '-1.134261'}		Force	2018-07	{'category': 'Investigation complete; no suspect identified', 'date': '2018-07'}	6cfada9d321813c31d8515499974d262a9f5ea15ab30b42b5d83e8c05f85a29b
446	burglary		66580407	{'latitude': '52.634195', 'street': {'id': 883502, 'name': 'On or near Glenfield Road East'}, 'longitude': '-1.150414'}		Force	2018-07	{'category': 'Under investigation', 'date': '2018-07'}	cdf3790c2cb5afb2158f6a8c0b0c778391fab65299e2f712be34a2e9eecf523f
447	burglary		66573500	{'latitude': '52.640274', 'street': {'id': 883240, 'name': 'On or near Wilton Street'}, 'longitude': '-1.129547'}		Force	2018-07	{'category': 'Investigation complete; no suspect identified', 'date': '2018-07'}	9d56aaf09683bcb25ab693c670d3cfc8803439acf1bac6a204445d26015b6ddb
448	burglary		66574442	{'latitude': '52.628256', 'street': {'id': 883456, 'name': 'On or near Briton Street'}, 'longitude': '-1.148327'}		Force	2018-07	{'category': 'Under investigation', 'date': '2018-07'}	73305bd32c0d1882b3f794798c30965656379d8d1fd483a7c4104c633fcc93ba
449	burglary		66580837	{'latitude': '52.634369', 'street': {'id': 883214, 'name': 'On or near Pegasus Close'}, 'longitude': '-1.117533'}		Force	2018-07	{'category': 'Under investigation', 'date': '2018-07'}	da592dba448c2a3a9b91042c99ffc441dceee2bff1114f2c4c65289b9ae50323
450	burglary		66581871	{'latitude': '52.641067', 'street': {'id': 884230, 'name': 'On or near Theatre/concert Hall'}, 'longitude': '-1.143320'}		Force	2018-07	{'category': 'Investigation complete; no suspect identified', 'date': '2018-07'}	3eab526f22a7534cd99ea747151aa3a0f1ba28c1429af4887e710d020e549002
451	burglary		66574565	{'latitude': '52.635005', 'street': {'id': 883219, 'name': 'On or near Jupiter Close'}, 'longitude': '-1.117284'}		Force	2018-07	{'category': 'Investigation complete; no suspect identified', 'date': '2018-07'}	1fe476b285ca90d41d7ba1ee7eacfa5193c5f8328f700ac819e73bb06070ba54
452	burglary		66578224	{'latitude': '52.628800', 'street': {'id': 883375, 'name': 'On or near Deacon Street'}, 'longitude': '-1.137738'}		Force	2018-07	{'category': 'Under investigation', 'date': '2018-07'}	7db148fae56d1f5ffcfcd53be898d2cf3a3c7f99443d0df9871a37d26f336fca
453	burglary		66576447	{'latitude': '52.634545', 'street': {'id': 883401, 'name': 'On or near Conference/exhibition Centre'}, 'longitude': '-1.127991'}		Force	2018-07	{'category': 'Under investigation', 'date': '2018-07'}	6806b39ccc92a51da9176570f64039b30294826bba636cd259513f30d2aa882f
454	burglary		66573498	{'latitude': '52.634693', 'street': {'id': 883424, 'name': 'On or near St Nicholas Circle'}, 'longitude': '-1.140799'}		Force	2018-07	{'category': 'Investigation complete; no suspect identified', 'date': '2018-07'}	2424616a64ee28d5b44f6ad9aa1202c68f7c581b5c544a4e003585f159f5de8a
455	burglary		66579221	{'latitude': '52.632883', 'street': {'id': 883538, 'name': 'On or near Stretton Road'}, 'longitude': '-1.154148'}		Force	2018-07	{'category': 'Investigation complete; no suspect identified', 'date': '2018-07'}	3cb7951447d10ae7544f94e4b537cb5ecd54e625e8c731f27fbf3a63c18717b5
456	burglary		66574775	{'latitude': '52.634760', 'street': {'id': 883329, 'name': 'On or near Rutland Street'}, 'longitude': '-1.127943'}		Force	2018-07	{'category': 'Under investigation', 'date': '2018-07'}	f0a2f20227813162d1180b3d33431bf97b710b16aca7cda2b8746b88f1ede9df
457	burglary		66577312	{'latitude': '52.632073', 'street': {'id': 883364, 'name': 'On or near Granby Street'}, 'longitude': '-1.126829'}		Force	2018-07	{'category': 'Investigation complete; no suspect identified', 'date': '2018-07'}	8e15cb03a3ad4d1333a18f3d57575582da2e70d3d42d2e66d249dc1369ece54e
458	burglary		66573425	{'latitude': '52.632993', 'street': {'id': 883396, 'name': 'On or near Nightclub'}, 'longitude': '-1.129633'}		Force	2018-07	{'category': 'Investigation complete; no suspect identified', 'date': '2018-07'}	295821ae25138a9fd069f05057885234e7a09a288f7e325a342a60c215fdb05a
459	burglary		66578164	{'latitude': '52.627933', 'street': {'id': 883416, 'name': 'On or near Parking Area'}, 'longitude': '-1.139691'}		Force	2018-07	{'category': 'Investigation complete; no suspect identified', 'date': '2018-07'}	5516a5402f175a900f68b0e078f5621563b6cee7115596b75017a97c88f14ee0
460	burglary		66578500	{'latitude': '52.640779', 'street': {'id': 884346, 'name': 'On or near Pasture Lane'}, 'longitude': '-1.138345'}		Force	2018-07	{'category': 'Under investigation', 'date': '2018-07'}	4f2f0b9531280fa7de41d35e432c16871e9c689cf6cd29f99cf1d57b599a0c4c
461	burglary		66581625	{'latitude': '52.631380', 'street': {'id': 883322, 'name': 'On or near Upper Brown Street'}, 'longitude': '-1.135338'}		Force	2018-07	{'category': 'Under investigation', 'date': '2018-07'}	1f11e4ffced8edcc339d4bae009d2304d6e428bf66e40257c769df4e02c3dc20
462	burglary		66577058	{'latitude': '52.629259', 'street': {'id': 883476, 'name': 'On or near Shaftesbury Road'}, 'longitude': '-1.151470'}		Force	2018-07	{'category': 'Under investigation', 'date': '2018-07'}	e14b9d01abfb5d7aa81954e5e4fff1453357436ca611e8d9faaf15fa20a26a4c
463	burglary		66578274	{'latitude': '52.616580', 'street': {'id': 882324, 'name': 'On or near Welford Road'}, 'longitude': '-1.126310'}		Force	2018-07	{'category': 'Investigation complete; no suspect identified', 'date': '2018-07'}	48c921904fc338862c9aa4185dfb24e83ea2daa8762fe2c95838deeaf872e819
464	burglary		66580586	{'latitude': '52.639768', 'street': {'id': 883239, 'name': 'On or near Parking Area'}, 'longitude': '-1.131597'}		Force	2018-07	{'category': 'Investigation complete; no suspect identified', 'date': '2018-07'}	27c361cadb59234abb44980930aae1ac9d238692db280daa8c577fa1e4ac6faa
465	burglary		66579551	{'latitude': '52.627933', 'street': {'id': 883416, 'name': 'On or near Parking Area'}, 'longitude': '-1.139691'}		Force	2018-07	{'category': 'Under investigation', 'date': '2018-07'}	98c6f4d22e69523922b8c2b57a49a354e252bbacea3bb1bd0b2f3cd459c15929
466	burglary		66573764	{'latitude': '52.627744', 'street': {'id': 883202, 'name': 'On or near Mandora Lane'}, 'longitude': '-1.118922'}		Force	2018-07	{'category': 'Investigation complete; no suspect identified', 'date': '2018-07'}	e6507553b2c51ed313b4a9fcb15840b6b5e96e857b5d30b0ebdc1bf2e7acfd9c
467	burglary		66577362	{'latitude': '52.627450', 'street': {'id': 883050, 'name': 'On or near Myrtle Road'}, 'longitude': '-1.111969'}		Force	2018-07	{'category': 'Investigation complete; no suspect identified', 'date': '2018-07'}	02d01c8c75f7d7900cdbbfb6515253a5c3abca951aaa055face552a9aac32b74
468	burglary		66581869	{'latitude': '52.623341', 'street': {'id': 882285, 'name': 'On or near Ivy Road'},